stop_id,stop_code,stop_name,stop_desc,stop_lat,stop_lon,zone_id,stop_url,location_type,parent_station,stop_timezone,wheelchair_boarding,ModeType
280,907913,NORTH AVENUE STATION,713 W PEACHTREE ST NW & NORTH AVE NE,33.771472,-84.387258,,,,,,0,rail
281,907914,NORTH AVENUE STATION,713 W PEACHTREE ST NW & UNNAMED ST,33.771741,-84.387204,,,,,,0,rail
822,907845,SANDY SPRINGS STATION,1101 MT VERNON HWY NE & UNNAMED ST,33.931671,-84.351069,,,,,,0,rail
823,907846,SANDY SPRINGS STATION,1101 MT VERNON HWY NE & UNNAMED ST,33.931564,-84.35096,,,,,,0,rail
40910,903009,DUNWOODY STATION,0 HAMMOND DR NE & PERIMETER CENTER PKY NE,33.920969,-84.344734,,,,,,0,rail
53,908051,DUNWOODY STATION,1200 HAMMOND DR NE & UNNAMED ST,33.920862,-84.344213,,,,,,0,rail
61,908047,DUNWOODY STATION,1200 HAMMOND DR NE & UNNAMED ST,33.92113,-84.344268,,,,,,0,rail
21950,903120,MANSELL PARK & RIDE - ON RAMP,2158 MANSELL RD,34.038139,-84.313456,,,,,,0,rail
21951,903177,MANSELL PARK & RIDE - IN LOT,2158 MANSELL RD,34.038643,-84.313173,,,,,,0,rail
10266,902641,WINDWARD PARK & RIDE,200 DRYDEN RD,34.085992,-84.260559,,,,,,0,bus
42900,905508,DORAVILLE STATION,0 NEW PEACHTREE RD & CENTRAL AVE,33.902424,-84.280467,,,,,,0,rail
375,908862,DORAVILLE STATION,6000 NEW PEACHTREE RD & PARK AVE,33.902411,-84.281166,,,,,,0,rail
384,908845,DORAVILLE STATION,6000 NEW PEACHTREE RD & LENOX RD NE,33.902787,-84.28061,,,,,,0,rail
814,908603,CHAMBLEE STATION,5200 NEW PEACHTREE RD & LENOX RD NE,33.887929,-84.305556,,,,,,0,rail
815,908604,CHAMBLEE STATION,5200 NEW PEACHTREE RD & LENOX RD NE,33.887517,-84.306362,,,,,,0,rail
46900,905514,CHAMBLEE STATION - EAST LOOP,0 PEACHTREE  RD & MALONE  DR,33.887675,-84.305039,,,,,,0,rail
46901,905515,CHAMBLEE STATION - WEST LOOP,0 PEACHTREE  RD & MALONE  DR,33.888495,-84.305504,,,,,,0,rail
53900,905697,BROOKHAVEN/OGLETHORPE STATION,4047 PEACHTREE RDNE,33.86025,-84.339147,,,,,,0,rail
83,908186,BROOKHAVEN-OGLETHORPE STATION,4067 PEACHTREE RD NE & LENOX RD NE,33.860329,-84.339245,,,,,,0,rail
84,908187,BROOKHAVEN-OGLETHORPE STATION,4047 PEACHTREE RD NE & LENOX RD NE,33.859989,-84.339397,,,,,,0,rail
52500,905666,LENOX STATION,LENOX RD NE & E PACES FERRY RD NE,33.845245,-84.358006,,,,,,0,rail
243,908717,LENOX STATION,955 E PACES FERRY RD NE & LENOX RD NE,33.845307,-84.358387,,,,,,0,rail
250,906827,LENOX STATION,955 E PACES FERRY RD NE & LENOX RD NE,33.845388,-84.358235,,,,,,0,rail
57,908054,LINDBERGH CENTER STATION,2424 PIEDMONT RD NE & METRO ATLANTA RAPID TRANSIT ATHRTY,33.823385,-84.369357,,,,,,0,rail
58,908055,LINDBERGH CENTER STATION,2424 PIEDMONT RD NE & METRO ATLANTA RAPID TRANSIT ATHRTY,33.823492,-84.369324,,,,,,0,rail
59900,902144,LINDBERGH STATION - SOUTH LOOP,0 LINDBERGH DR NE,33.821192,-84.36941,,,,,,0,rail
59901,902145,LINDBERGH CENTER STATION - NORTH LOOP,0 PIEDMONT RD  NE & LINDBERGH DR NE,33.823072,-84.36995,,,,,,0,rail
999549,907775,LINDBERGH CENTER STATION,2424 PIEDMONT RD NE & METRO ATLANTA RAPID TRANSIT ATHRTY,33.823501,-84.369313,,,,,,0,rail
999690,907823,LINDBERGH CENTER STATION,2424 PIEDMONT RD NE & METRO ATLANTA RAPID TRANSIT ATHRTY,33.823447,-84.369324,,,,,,0,rail
799,908437,INMAN PARK-REYNOLDSTOWN STATION,1055 DEKALB AVE NE & UNNAMED ST,33.757451,-84.352762,,,,,,0,rail
804,908692,INMAN PARK-REYNOLDSTOWN STATION,1055 DEKALB AVE NE & HURT ST NE,33.757227,-84.353066,,,,,,0,rail
95900,901155,INMAN PARK/REYNOLDSTOWN STATION - NORTH LOOP,0 DEKALB  AVE NE & HURT ST  NE,33.757726,-84.353409,,,,,,0,rail
95901,901066,INMAN PARK/REYNOLDSTOWN STATION - SOUTH LOOP,SEABORD AVE NE,33.756635,-84.353111,,,,,,0,rail
195,908476,EDGEWOOD-CANDLER PARK STATION,1475 DEKALB AVE NE & HURT ST NE,33.761803,-84.340825,,,,,,0,rail
204,908699,EDGEWOOD-CANDLER PARK STATION,1475 DEKALB AVE NE & HURT ST NE,33.761866,-84.340456,,,,,,0,rail
84902,904323,EAST LAKE STATION - SOUTH LOOP,PARK PL & WINTER AVE,33.764534,-84.31272,,,,,,0,rail
185,908566,EAST LAKE STATION,2260 W HOWARD AVE & UNNAMED ST,33.765241,-84.312937,,,,,,0,rail
186,908567,EAST LAKE STATION,2260 W HOWARD AVE & UNNAMED ST,33.765196,-84.313426,,,,,,0,rail
800,908438,AVONDALE STATION,915 E PONCE DE LEON AVE & E PONCE DE LEON AVE,33.775554,-84.281487,,,,,,0,rail
803,908691,AVONDALE STATION,915 E PONCE DE LEON AVE & E PONCE DE LEON AVE,33.775214,-84.282466,,,,,,0,rail
85902,904264,AVONDALE STATION - NORTH LOOP,E PONCE DE LEON AVE & POPLAR ST,33.775634,-84.28177,,,,,,0,rail
86900,900686,KENSINGTON STATION,0 KENSINGTON RD,33.772472,-84.252236,,,,,,0,rail
224,908709,KENSINGTON STATION,3350 KENSINGTON RD & UNNAMED ST,33.772764,-84.252151,,,,,,0,rail
232,908634,KENSINGTON STATION,3350 KENSINGTON RD & E PONCE DE LEON AVE,33.772647,-84.251607,,,,,,0,rail
87900,903391,INDIAN CREEK STATION - INSIDE BUS LOOP,0 ELDER LN & REDAN RD,33.769764,-84.229424,,,,,,0,rail
87901,211300,INDIAN CREEK STATION - OUTSIDE LOOP,0 ELDER LN & REDAN RD,33.769268,-84.229764,,,,,,0,rail
801,908515,INDIAN CREEK STATION,3901 DURHAM PARK RD & UNNAMED ST,33.769856,-84.228906,,,,,,0,rail
802,908516,INDIAN CREEK STATION,3901 DURHAM PARK RD & UNNAMED ST,33.769893,-84.229874,,,,,,0,rail
79900,904519,BANKHEAD STATION,BANKHEAD HWY NW & GARY AVE NW,33.77206,-84.428677,,,,,,0,rail
269,907960,BANKHEAD STATION,1335 DONALD LEE HOLLOWELL PKY NW & UNNAMED ST,33.772159,-84.428873,,,,,,0,rail
270,907961,BANKHEAD STATION,1335 DONALD LEE HOLLOWELL PKY NW & UNNAMED ST,33.772436,-84.428906,,,,,,0,rail
485,908963,ASHBY STATION,65 JOSEPH E LOWERY BLVD NW & UNNAMED ST,33.756478,-84.41723,,,,,,0,rail
486,908964,ASHBY STATION,65 JOSEPH E LOWERY BLVD NW & UNNAMED ST,33.756477,-84.417328,,,,,,0,rail
79028,904642,ASHBY STATION - EAST SIDE,0 JOSEPH E LOWERY BLVD NW & LENA ST NW,33.756066,-84.417371,,,,,,0,rail
99900,900231,WEST LAKE STATION - WEST LOOP,0 ANDERSONAVE SW & PENELOPERD  NW,33.752833,-84.445389,,,,,,0,rail
99901,900232,WEST LAKE STATION - EAST LOOP,W LAKE AVE SW & BROWNING ST SW,33.75263,-84.444719,,,,,,0,rail
28,908023,WEST LAKE STATION,80 ANDERSON AVE NW & CSX TRANSPORTATION,33.753328,-84.445329,,,,,,0,rail
39,907906,WEST LAKE STATION,80 ANDERSON AVE NW & CSX TRANSPORTATION,33.753247,-84.445568,,,,,,0,rail
27,907933,HAMILTON E HOLMES STATION,70 HAMILTON E HOLMES DR NW & CSX TRANSPORTATION,33.754553,-84.469302,,,,,,0,rail
40,907907,HAMILTON E HOLMES STATION,70 HAMILTON E HOLMES DR NW & CSX TRANSPORTATION,33.754517,-84.469824,,,,,,0,rail
98020,901140,HAMILTON E HOLMES STATION - OUTSIDE LOOP,0 MARTIN LUTHER KING JR DR SW & STONEHURST PL,33.754275,-84.470008,,,,,,0,rail
98900,903320,HAMILTON E HOLMES STATION - BUS LOOP,STONEHURST PL SW,33.753945,-84.468997,,,,,,0,rail
219,908704,WEST END STATION,680 LEE ST SW & UNNAMED ST,33.736564,-84.413653,,,,,,0,rail
220,908705,WEST END STATION,680 LEE ST SW & UNNAMED ST,33.735705,-84.413663,,,,,,0,rail
114900,114900,WEST END STATION,0 LEE  ST  SW & OGLETHORPE AVE SW,33.735899,-84.413542,,,,,,0,rail
123900,123900,OAKLAND CITY STATION,1356 LEE  ST  SW,33.717407,-84.426301,,,,,,0,rail
693,908301,OAKLAND CITY STATION,1400 LEE ST SW & MAIN ST,33.7173,-84.42503,,,,,,0,rail
694,908302,OAKLAND CITY STATION,1400 LEE ST SW & UNNAMED ST,33.716978,-84.425138,,,,,,0,rail
218,908629,LAKEWOOD-FT MCPHERSON STATION,2020 LEE ST SW & THOMPSON AVE,33.70088,-84.428768,,,,,,0,rail
221,908706,LAKEWOOD-FT MCPHERSON STATION,2020 LEE ST SW & MAIN ST,33.700298,-84.428865,,,,,,0,rail
217,908628,EAST POINT STATION,2848 MAIN ST & THOMPSON AVE,33.677424,-84.440542,,,,,,0,rail
222,908707,EAST POINT STATION,2848 MAIN ST & THOMPSON AVE,33.676985,-84.440704,,,,,,0,rail
146308,146308,EAST POINT ST @ WARE AVE,0 EAST POINT ST & WARE AVE,33.681845,-84.441526,,,,,,0,rail
146900,146900,EAST POINT STATION,0 MAIN ST & DORSEY  AVE,33.67657,-84.44046,,,,,,0,rail
166900,166900,COLLEGE PARK STATION - SOUTH LOOP,3784 E MAIN ST,33.651267,-84.448559,,,,,,0,rail
166901,166901,COLLEGE PARK STATION - NORTH LOOP,3784 E MAIN ST,33.651937,-84.448465,,,,,,0,rail
809,908599,COLLEGE PARK STATION,3800 E MAIN ST & UNNAMED ST,33.650577,-84.448656,,,,,,0,rail
820,907844,COLLEGE PARK STATION,3800 E MAIN ST & UNNAMED ST,33.650282,-84.448612,,,,,,0,rail
99969960,144950,BARGE RD PARK & RIDE,0 CAMPBELLTONRD  SW & BARGERD  SW,33.688804,-84.507221,,,,,,0,bus
183950,183950,SOUTH FULTON PARK & RIDE,3805 FLAT SHOALSRD,33.586794,-84.51233,,,,,,0,bus
99972547,212139,GRTA - RIVERDALE PARK & RIDE,LAMAR HUTCHESON PKY & VALLEY HILL RD SW,33.56835,-84.403322,,,,,,0,bus
