stop_id,stop_code,stop_name,stop_desc,stop_lat,stop_lon,zone_id,stop_url,location_type,parent_station,stop_timezone,wheelchair_boarding,has_park,geometry,GridID,nodeid_before,type,x,y,nodeid,p_n_dist
27,907933,HAMILTON E HOLMES STATION,70 HAMILTON E HOLMES DR NW & CSX TRANSPORTATION,33.754553,-84.469302,,,,,,0,TRUE,POINT (2204600.890841818 1365884.83399323),228,990002,rail,2204600.891,1365884.834,233006,0.081603199
28,908023,WEST LAKE STATION,80 ANDERSON AVE NW & CSX TRANSPORTATION,33.753328,-84.445329,,,,,,0,TRUE,POINT (2211886.020171736 1365418.557401483),228,990003,rail,2211886.02,1365418.557,281207,0.041499782
39,907906,WEST LAKE STATION,80 ANDERSON AVE NW & CSX TRANSPORTATION,33.753247,-84.445568,,,,,,0,TRUE,POINT (2211813.297990013 1365389.280436665),228,990003,rail,2211813.298,1365389.28,281207,0.02752714
40,907907,HAMILTON E HOLMES STATION,70 HAMILTON E HOLMES DR NW & CSX TRANSPORTATION,33.754517,-84.469824,,,,,,0,TRUE,POINT (2204442.196013186 1365872.20075255),228,990002,rail,2204442.196,1365872.201,46343,0.086685214
53,908051,DUNWOODY STATION,1200 HAMMOND DR NE & UNNAMED ST,33.920862,-84.344213,,,,,,0,TRUE,POINT (2242724.702296362 1426311.589293454),251,500079,rail,2242724.702,1426311.589,269468,0.01896901
57,908054,LINDBERGH CENTER STATION,2424 PIEDMONT RD NE & METRO ATLANTA RAPID TRANSIT ATHRTY,33.823385,-84.369357,,,,,,0,TRUE,POINT (2235027.331706561 1390856.292230765),249,990030,rail,2235027.332,1390856.292,57742,0.122125516
58,908055,LINDBERGH CENTER STATION,2424 PIEDMONT RD NE & METRO ATLANTA RAPID TRANSIT ATHRTY,33.823492,-84.369324,,,,,,0,TRUE,POINT (2235037.430306905 1390895.206790145),249,990030,rail,2235037.43,1390895.207,57742,0.119666155
61,908047,DUNWOODY STATION,1200 HAMMOND DR NE & UNNAMED ST,33.92113,-84.344268,,,,,,0,TRUE,POINT (2242708.186730644 1426409.137307591),251,990033,rail,2242708.187,1426409.137,269468,0.03698586
83,908186,BROOKHAVEN-OGLETHORPE STATION,4067 PEACHTREE RD NE & LENOX RD NE,33.860329,-84.339245,,,,,,0,TRUE,POINT (2244194.750747096 1404282.536671964),250,990037,rail,2244194.751,1404282.537,500083,0.028177114
84,908187,BROOKHAVEN-OGLETHORPE STATION,4047 PEACHTREE RD NE & LENOX RD NE,33.859989,-84.339397,,,,,,0,TRUE,POINT (2244148.401145777 1404158.897042686),250,990037,rail,2244148.401,1404158.897,244136,0.040293827
111,906369,ARTS CENTER STATION,1255 W PEACHTREE ST NW & 16TH ST NW,33.789669,-84.387414,,,,,,0,FALSE,POINT (2229517.205698148 1378599.295188795),249,990029,rail,2229517.206,1378599.295,285784,0.025570038
112,906370,ARTS CENTER STATION,1255 W PEACHTREE ST NW & 15TH ST NE,33.788828,-84.387272,,,,,,0,FALSE,POINT (2229559.692094075 1378293.188076255),249,990029,rail,2229559.692,1378293.188,500076,0.031974084
133,908374,MIDTOWN  STATION,41 10TH ST NE & PEACHTREE WALK NE,33.781247,-84.386342,,,,,,0,FALSE,POINT (2229836.361149365 1375534.087520043),249,990028,rail,2229836.361,1375534.088,233609,0.014928377
134,908375,MIDTOWN STATION,41 10TH ST NE & PEACHTREE WALK NE,33.781355,-84.386353,,,,,,0,FALSE,POINT (2229833.102643139 1375573.392558004),249,990028,rail,2229833.103,1375573.393,233609,0.007546535
185,908566,EAST LAKE STATION,2260 W HOWARD AVE & UNNAMED ST,33.765241,-84.312937,,,,,,0,TRUE,POINT (2252131.767795356 1369670.404469573),268,990012,rail,2252131.768,1369670.404,80538,0.02260817
186,908567,EAST LAKE STATION,2260 W HOWARD AVE & UNNAMED ST,33.765196,-84.313426,,,,,,0,TRUE,POINT (2251983.137223326 1369654.241616385),268,990012,rail,2251983.137,1369654.242,245757,0.012695216
193,908475,DECATUR STATION,400 CHURCH ST & E PONCE DE LEON AVE,33.774699,-84.295417,,,,,,0,FALSE,POINT (2257460.399472502 1373104.767895236),268,990013,rail,2257460.399,1373104.768,81307,0.030768158
195,908476,EDGEWOOD-CANDLER PARK STATION,1475 DEKALB AVE NE & HURT ST NE,33.761803,-84.340825,,,,,,0,TRUE,POINT (2243654.479942185 1368432.597496187),248,990011,rail,2243654.48,1368432.597,500053,0.027069731
198,908618,GEORGIA STATE STATION,170 PIEDMONT AVE SE & GEORGIA,33.750161,-84.385915,,,,,,0,FALSE,POINT (2229942.045616552 1364222.590752584),248,990008,rail,2229942.046,1364222.591,50953,0.034408733
201,908696,GEORGIA STATE STATION,170 PIEDMONT AVE SE & BROAD ST SW,33.750143,-84.385882,,,,,,0,FALSE,POINT (2229952.062177124 1364216.019810755),248,990008,rail,2229952.062,1364216.02,50953,0.03667758
204,908699,EDGEWOOD-CANDLER PARK STATION,1475 DEKALB AVE NE & HURT ST NE,33.761866,-84.340456,,,,,,0,TRUE,POINT (2243766.662341638 1368455.331942912),248,990011,rail,2243766.662,1368455.332,500053,0.009301808
206,908700,DECATUR STATION,400 CHURCH ST & E PONCE DE LEON AVE,33.774681,-84.295319,,,,,,0,FALSE,POINT (2257490.170248462 1373098.181075476),268,990013,rail,2257490.17,1373098.181,81307,0.025061981
217,908628,EAST POINT STATION,2848 MAIN ST & THOMPSON AVE,33.677424,-84.440542,,,,,,0,TRUE,POINT (2213267.716915908 1337795.755652256),227,990019,rail,2213267.717,1337795.756,44251,0.026516218
218,908629,LAKEWOOD-FT MCPHERSON STATION,2020 LEE ST SW & THOMPSON AVE,33.70088,-84.428768,,,,,,0,TRUE,POINT (2216871.152064402 1346321.273109401),227,990020,rail,2216871.152,1346321.273,286242,0.035999345
219,908704,WEST END STATION,680 LEE ST SW & UNNAMED ST,33.736564,-84.413653,,,,,,0,TRUE,POINT (2221499.118934768 1359294.141088652),228,990022,rail,2221499.119,1359294.141,500075,0.024388967
220,908705,WEST END STATION,680 LEE ST SW & UNNAMED ST,33.735705,-84.413663,,,,,,0,TRUE,POINT (2221495.330590993 1358981.586467223),228,990022,rail,2221495.331,1358981.586,47803,0.025364976
221,908706,LAKEWOOD-FT MCPHERSON STATION,2020 LEE ST SW & MAIN ST,33.700298,-84.428865,,,,,,0,TRUE,POINT (2216841.113918171 1346109.578430543),227,990020,rail,2216841.114,1346109.578,286242,0.026827331
222,908707,EAST POINT STATION,2848 MAIN ST & THOMPSON AVE,33.676985,-84.440704,,,,,,0,TRUE,POINT (2213218.011100595 1337636.150021898),227,990019,rail,2213218.011,1337636.15,300597,0.024968321
224,908709,KENSINGTON STATION,3350 KENSINGTON RD & UNNAMED ST,33.772764,-84.252151,,,,,,0,TRUE,POINT (2270606.915032862 1372387.018574005),268,991015,rail,2270606.915,1372387.019,255252,0.090408527
232,908634,KENSINGTON STATION,3350 KENSINGTON RD & E PONCE DE LEON AVE,33.772647,-84.251607,,,,,,0,TRUE,POINT (2270772.187143312 1372344.309328532),268,990015,rail,2270772.187,1372344.309,500061,0.068339744
243,908717,LENOX STATION,955 E PACES FERRY RD NE & LENOX RD NE,33.845307,-84.358387,,,,,,0,TRUE,POINT (2238373.730403427 1398826.721176764),249,255015,rail,2238373.73,1398826.721,255015,0.00356824
244,908718,BUCKHEAD STATION,3360 PEACHTREE RD NE & GA-400-TOLL,33.84781,-84.367629,,,,,,0,FALSE,POINT (2235569.474618892 1399742.851433189),249,990031,rail,2235569.475,1399742.851,57875,0.018087647
249,908639,BUCKHEAD STATION,3360 PEACHTREE RD NE & GA-400-TOLL,33.847944,-84.367716,,,,,,0,FALSE,POINT (2235543.155942116 1399791.662072539),249,990031,rail,2235543.156,1399791.662,57878,0.015819129
250,906827,LENOX STATION,955 E PACES FERRY RD NE & LENOX RD NE,33.845388,-84.358235,,,,,,0,TRUE,POINT (2238419.93517838 1398856.108924086),249,990036,rail,2238419.935,1398856.109,255015,0.012909952
269,907960,BANKHEAD STATION,1335 DONALD LEE HOLLOWELL PKY NW & UNNAMED ST,33.772159,-84.428873,,,,,,0,TRUE,POINT (2216905.1381648 1372257.45569152),228,990001,rail,2216905.138,1372257.456,48395,0.018543136
270,907961,BANKHEAD STATION,1335 DONALD LEE HOLLOWELL PKY NW & UNNAMED ST,33.772436,-84.428906,,,,,,0,TRUE,POINT (2216895.366677672 1372358.273046515),228,993001,rail,2216895.367,1372358.273,48395,0.037399373
280,907913,NORTH AVENUE STATION,713 W PEACHTREE ST NW & NORTH AVE NE,33.771472,-84.387258,,,,,,0,TRUE,POINT (2229550.426554948 1371977.859901574),248,990027,rail,2229550.427,1371977.86,51861,0.018503034
281,907914,NORTH AVENUE STATION,713 W PEACHTREE ST NW & UNNAMED ST,33.771741,-84.387204,,,,,,0,TRUE,POINT (2229567.045443169 1372075.705546889),248,990027,rail,2229567.045,1372075.706,285796,0.010261413
355,906311,HOWELL MILL RD@KIPLING DR,HOWELL MILL RD NW & KIPLING DR NW,33.81354,-84.414774,,,,,,0,FALSE,POINT (2221225.76096655 1387304.175614474),229,54970,bus,2221225.761,1387304.176,54970,0.00381263
375,908862,DORAVILLE STATION,6000 NEW PEACHTREE RD & PARK AVE,33.902411,-84.281166,,,,,,0,TRUE,POINT (2261842.518996304 1419570.503141901),270,990039,rail,2261842.519,1419570.503,90005,0.061493208
384,908845,DORAVILLE STATION,6000 NEW PEACHTREE RD & LENOX RD NE,33.902787,-84.28061,,,,,,0,TRUE,POINT (2262011.369580857 1419707.13292312),270,990039,rail,2262011.37,1419707.133,90005,0.063671484
394,908872,MEDICAL CENTER STATION,5711 PEACHTREE DUNWOODY RD NE & HOLLIS COBB CIR,33.910757,-84.35189,,,,,,0,FALSE,POINT (2240389.250926544 1422638.724321838),250,990032,rail,2240389.251,1422638.724,60572,0.056337938
399,908885,MEDICAL CENTER STATION,5711 PEACHTREE DUNWOODY RD & HOLLIS COBB CIR,33.910739,-84.351759,,,,,,0,FALSE,POINT (2240428.98268109 1422632.10288278),250,990032,rail,2240428.983,1422632.103,60572,0.062131411
429,908911,CIVIC CENTER STATION,435 W PEACHTREE ST NW & I-75,33.766111,-84.387504,,,,,,0,FALSE,POINT (2229471.493149556 1370027.319159617),248,990026,rail,2229471.493,1370027.319,233532,0.018460162
430,908912,CIVIC CENTER STATION,435 W PEACHTREE ST NW & I-75,33.766236,-84.387504,,,,,,0,FALSE,POINT (2229471.590587723 1370072.80274456),248,990026,rail,2229471.591,1370072.803,51097,0.010222977
470,908958,VINE CITY STATION,502 RHODES ST NW & UNNAMED ST,33.756613,-84.403902,,,,,,0,FALSE,POINT (2224480.224316549 1366582.367564256),228,48276,rail,2224480.224,1366582.368,48276,0.068201187
471,908959,VINE CITY STATION,502 RHODES ST NW & ELECTRIC AVE NW,33.756613,-84.404021,,,,,,0,FALSE,POINT (2224444.05647958 1366582.450799005),228,48276,rail,2224444.056,1366582.451,48275,0.074782823
485,908963,ASHBY STATION,65 JOSEPH E LOWERY BLVD NW & UNNAMED ST,33.756478,-84.41723,,,,,,0,TRUE,POINT (2220429.306448006 1366542.827087873),228,990004,rail,2220429.306,1366542.827,48047,0.018295032
486,908964,ASHBY STATION,65 JOSEPH E LOWERY BLVD NW & UNNAMED ST,33.756477,-84.417328,,,,,,0,TRUE,POINT (2220399.520227893 1366542.53561263),228,990004,rail,2220399.52,1366542.536,48047,0.013975121
693,908301,OAKLAND CITY STATION,1400 LEE ST SW & MAIN ST,33.7173,-84.42503,,,,,,0,TRUE,POINT (2218022.935088185 1352293.082957389),228,990021,rail,2218022.935,1352293.083,233104,0.025510716
694,908302,OAKLAND CITY STATION,1400 LEE ST SW & UNNAMED ST,33.716978,-84.425138,,,,,,0,TRUE,POINT (2217989.802103493 1352176.000266792),228,990021,rail,2217989.802,1352176,202741,0.022970069
730,908480,NORTH SPRINGS STATION,7010 PEACHTREE DUNWOODY RD & PERIMETER CTR W,33.944377,-84.357253,,,,,,0,FALSE,POINT (2238784.904795622 1434875.277828527),251,990035,rail,2238784.905,1434875.278,281096,0.248384192
796,908435,DOME-GWCC-PHILIPS ARENA-CNN STATION,100 CENTENNIAL OLYMPIC PARK DR NW & PHILIPS DR NW,33.756179,-84.397215,,,,,,0,FALSE,POINT (2226512.260326728 1366419.838610063),248,990006,rail,2226512.26,1366419.839,50832,0.017264007
797,908981,FIVE POINTS STATION,30 ALABAMA ST SW & UPPER ALABAMA ST SW,33.753837,-84.391397,,,,,,0,FALSE,POINT (2228278.684435021 1365563.755818933),248,990024,rail,2228278.684,1365563.756,281277,0.043892966
798,908436,KING MEMORIAL STATION,377 DECATUR ST SE & UNNAMED ST,33.749951,-84.375675,,,,,,0,FALSE,POINT (2233054.37954343 1364139.716028729),248,993009,rail,2233054.38,1364139.716,300648,0.053177844
799,908437,INMAN PARK-REYNOLDSTOWN STATION,1055 DEKALB AVE NE & UNNAMED ST,33.757451,-84.352762,,,,,,0,TRUE,POINT (2240023.816290798 1366855.382315815),248,990010,rail,2240023.816,1366855.382,286241,0.014513201
800,908438,AVONDALE STATION,915 E PONCE DE LEON AVE & E PONCE DE LEON AVE,33.775554,-84.281487,,,,,,0,TRUE,POINT (2261693.610937297 1373410.873616851),268,990014,rail,2261693.611,1373410.874,81440,0.04137844
801,908515,INDIAN CREEK STATION,3901 DURHAM PARK RD & UNNAMED ST,33.769856,-84.228906,,,,,,0,TRUE,POINT (2277669.815346176 1371323.828418341),288,990016,rail,2277669.815,1371323.828,500062,0.064156643
802,908516,INDIAN CREEK STATION,3901 DURHAM PARK RD & UNNAMED ST,33.769893,-84.229874,,,,,,0,TRUE,POINT (2277375.664154042 1371337.470532426),288,990016,rail,2277375.664,1371337.471,84726,0.038298666
803,908691,AVONDALE STATION,915 E PONCE DE LEON AVE & E PONCE DE LEON AVE,33.775214,-84.282466,,,,,,0,TRUE,POINT (2261395.989292435 1373287.491177044),268,990014,rail,2261395.989,1373287.491,280581,0.044510839
804,908692,INMAN PARK-REYNOLDSTOWN STATION,1055 DEKALB AVE NE & HURT ST NE,33.757227,-84.353066,,,,,,0,TRUE,POINT (2239931.274815008 1366774.042807929),248,990010,rail,2239931.275,1366774.043,286241,0.027011127
805,908693,KING MEMORIAL STATION,377 DECATUR ST SE & UNNAMED ST,33.749853,-84.37599,,,,,,0,FALSE,POINT (2232958.561439542 1364104.251192982),248,993009,rail,2232958.561,1364104.251,300648,0.039747523
806,908990,FIVE POINTS STATION,30 ALABAMA ST SW & BROAD ST SW,33.754123,-84.391876,,,,,,0,FALSE,POINT (2228133.323928757 1365668.139690152),248,990024,rail,2228133.324,1365668.14,340429,0.023950818
807,908694,DOME-GWCC-PHILIPS ARENA-CNN STATION,100 CENTENNIAL OLYMPIC PARK DR NW & PHILIPS DR NW,33.756187,-84.397291,,,,,,0,FALSE,POINT (2226489.167938659 1366422.801210693),248,990006,rail,2226489.168,1366422.801,50832,0.016393427
808,908695,AIRPORT STATION,6000 S TERMINAL PKY & UNNAMED ST,33.640831,-84.446198,,,,,,0,FALSE,POINT (2211511.095655326 1324485.524496059),226,990017,rail,2211511.096,1324485.524,233097,0.068499426
809,908599,COLLEGE PARK STATION,3800 E MAIN ST & UNNAMED ST,33.650577,-84.448656,,,,,,0,TRUE,POINT (2210772.698572483 1328033.756687033),227,990018,rail,2210772.699,1328033.757,43953,0.046263676
810,908600,GARNETT STATION,225 PEACHTREE ST SW & GARNETT ST SW,33.748938,-84.395545,,,,,,0,FALSE,POINT (2227013.980392166 1363783.939997584),248,990023,rail,2227013.98,1363783.94,50570,0.044496843
811,908986,FIVE POINTS STATION,30 ALABAMA ST SW & UPPER ALABAMA ST SW,33.754052,-84.391452,,,,,,0,FALSE,POINT (2228262.138209792 1365642.023873968),248,990024,rail,2228262.138,1365642.024,285813,0.047646907
812,908601,PEACHTREE CENTER STATION,216 PEACHTREE ST NE & ELLIS ST NW,33.758189,-84.387596,,,,,,0,FALSE,POINT (2229437.357395855 1367144.813260048),248,990025,rail,2229437.357,1367144.813,50995,0.014798265
813,908602,LINDBERGH POCKET,LINDBERGH DR NE & GARSON DR NE,33.820655,-84.370095,,,,,,0,FALSE,POINT (2234801.241415825 1389863.364317894),249,990030,rail,2234801.241,1389863.364,57615,0.030097336
814,908603,CHAMBLEE STATION,5200 NEW PEACHTREE RD & LENOX RD NE,33.887929,-84.305556,,,,,,0,TRUE,POINT (2254435.098597702 1414309.983091476),270,990038,rail,2254435.099,1414309.983,88000,0.059191761
815,908604,CHAMBLEE STATION,5200 NEW PEACHTREE RD & LENOX RD NE,33.887517,-84.306362,,,,,,0,TRUE,POINT (2254190.30076082 1414160.398046201),270,990038,rail,2254190.301,1414160.398,88000,0.047682034
816,908605,LINDBERGH POCKET,LINDBERGH DR NE & METRO ATLANTA RAPID TRANSIT ATHRTY,33.820565,-84.370117,,,,,,0,FALSE,POINT (2234794.495182686 1389830.629066536),249,990030,rail,2234794.495,1389830.629,57615,0.036022264
817,907842,PEACHTREE CENTER STATION,216 PEACHTREE ST NE & ELLIS ST NE,33.758082,-84.387595,,,,,,0,FALSE,POINT (2229437.577897744 1367105.878710733),248,50994,rail,2229437.578,1367105.879,50994,0.014374074
818,908976,FIVE POINTS STATION,30 ALABAMA ST SW & UPPER ALABAMA ST SW,33.753899,-84.39156,,,,,,0,FALSE,POINT (2228229.19123743 1365586.423643071),248,990024,rail,2228229.191,1365586.424,340429,0.047761653
819,907843,GARNETT STATION,225 PEACHTREE ST SW & GARNETT ST SW,33.748696,-84.395741,,,,,,0,FALSE,POINT (2226954.208955393 1363696.016277452),248,990023,rail,2226954.209,1363696.016,50570,0.054063984
820,907844,COLLEGE PARK STATION,3800 E MAIN ST & UNNAMED ST,33.650282,-84.448612,,,,,,0,TRUE,POINT (2210785.795321226 1327926.380729421),227,990018,rail,2210785.795,1327926.381,243648,0.056246538
821,906647,AIRPORT STATION,6000 S TERMINAL PKY & UNNAMED ST,33.640553,-84.446198,,,,,,0,FALSE,POINT (2211510.822261217 1324384.370881965),226,990017,rail,2211510.822,1324384.371,201638,0.051872359
822,907845,SANDY SPRINGS STATION,1101 MT VERNON HWY NE & UNNAMED ST,33.931671,-84.351069,,,,,,0,TRUE,POINT (2240651.999027608 1430248.410553273),251,990034,rail,2240651.999,1430248.411,243287,0.031308379
823,907846,SANDY SPRINGS STATION,1101 MT VERNON HWY NE & UNNAMED ST,33.931564,-84.35096,,,,,,0,TRUE,POINT (2240684.990108998 1430209.416214835),251,990034,rail,2240684.99,1430209.416,234922,0.027626171
824,907847,E-145 POCKET TRACK,DEKALB AVE NE & HAMPTON TER NE,33.760148,-84.325669,,,,,,0,FALSE,POINT (2248259.650238245 1367822.953847692),248,990011,rail,2248259.65,1367822.954,53340,0.012846094
825,908606,E-145 POCKET TRACK,DEKALB AVE NE & HAMPTON TER NE,33.760122,-84.326093,,,,,,0,FALSE,POINT (2248130.774218373 1367813.692277138),248,990011,rail,2248130.774,1367813.692,53340,0.035039038
1118,906837,AIRPORT STATION,6000 S TERMINAL PKY & UNNAMED ST,33.640294,-84.446197,,,,,,0,FALSE,POINT (2211510.871895772 1324290.129825906),226,990017,rail,2211510.872,1324290.13,201638,0.03483508
9008,902632,N MAIN ST @ WINTHROPE PARK DR,0 MAIN & WINTHROPE PARK,34.089495,-84.294218,,,,,,0,FALSE,POINT (2257967.081717536 1487651.588977354),273,209258,bus,2257967.082,1487651.589,209258,0.02685309
9012,902630,N MAIN ST @ 379,,34.085826,-84.294957,,,,,,0,FALSE,POINT (2257741.673384835 1486316.767513332),273,298357,bus,2257741.673,1486316.768,298357,0.008548281
9016,902631,N MAIN ST @ 301,0 MAIN & PINE GROVE,34.08386,-84.294755,,,,,,0,FALSE,POINT (2257801.935400906 1485601.289299183),273,108863,bus,2257801.935,1485601.289,108863,0.096996505
9020,900005,N MAIN ST @ PINE GROVE DR,0 MAIN & PINE GROVE,34.082292,-84.294607,,,,,,0,FALSE,POINT (2257846.031507045 1485030.658791423),273,108863,bus,2257846.032,1485030.659,108863,0.01634741
9025,900006,N MAIN ST @ MAYFIELD RD,0 MAIN & MAYFIELD,34.080401,-84.29444,,,,,,0,FALSE,POINT (2257895.735276836 1484342.485940137),273,242464,bus,2257895.735,1484342.486,242464,0.012343953
9030,900018,N MAIN ST @ CUMMING ST,0 MAIN & CUMMING,34.078152,-84.294291,,,,,,0,FALSE,POINT (2257939.828524601 1483524.0488389),273,108861,bus,2257939.829,1483524.049,108861,0.027495035
9031,900007,N MAIN ST @ ACADEMY ST,0 MAIN & ACADEMY,34.076201,-84.294288,,,,,,0,FALSE,POINT (2257939.850860754 1482814.10537028),273,334605,bus,2257939.851,1482814.105,334605,0.017867791
9034,900008,N MAIN ST @ VAUGHAN DR,0 MAIN & VAUGHN,34.090788,-84.292399,,,,,,0,FALSE,POINT (2258518.364228087 1488121.412809948),273,108902,bus,2258518.364,1488121.413,108902,0.022313206
9224,900010,N MAIN ST @ VAUGHAN DR,0 N MAIN ST & VAUGHN DR,34.090721,-84.293124,,,,,,0,FALSE,POINT (2258298.843039149 1488097.303121086),273,263416,bus,2258298.843,1488097.303,263416,0.01529926
9226,900011,N MAIN ST @ PINE GROVE DR,0 MAIN & PINE GROVE,34.082476,-84.295051,,,,,,0,FALSE,POINT (2257711.682816706 1485097.782454754),273,108863,bus,2257711.683,1485097.782,108863,0.013575946
10004,900012,WINDWARD PKWY @ DEERFIELD PKWY,0 WINDWARD PKY & DEERFIELD PKY,34.08758,-84.268277,,,,,,0,FALSE,POINT (2265820.047621333 1486945.942561889),273,109202,bus,2265820.048,1486945.943,109202,0.063839637
10006,900013,WINDWARD PKWY @ 5532,5532 WINDWARD PKY,34.087337,-84.265132,,,,,,0,FALSE,POINT (2266772.134989531 1486856.586300258),273,216424,bus,2266772.135,1486856.586,216424,0.020946035
10008,900014,WINDWARD PKWY @ NORTH POINT PKWY,0 WINDWARD & NORTH POINT,34.08886,-84.2579,,,,,,0,FALSE,POINT (2268962.178408495 1487408.754537569),273,109221,bus,2268962.178,1487408.755,109221,0.053972052
10010,902838,WINDWARD PKWY @ NORTH POINT PKWY,0 WINDWARD PKY & NORTH POINT PKY,34.088603,-84.257107,,,,,,0,FALSE,POINT (2269202.178782538 1487315.022270225),273,109221,bus,2269202.179,1487315.022,109221,0.008478413
10040,902839,MARTIN L KING JR DR NW @ OLLIE ST NW,0 MARTIN LUTHER KING JR DR NW & OLLIE ST NW,33.754809,-84.421186,,,,,,0,FALSE,POINT (2219225.45239455 1365938.475540576),228,47704,bus,2219225.452,1365938.476,47704,0.005716243
10044,902840,NORTH POINT PKY@900,,34.08083,-84.25948,,,,,,0,FALSE,POINT (2268481.176028446 1484487.175110442),273,340318,bus,2268481.176,1484487.175,340318,0.016289874
10046,902796,NORTH POINT PKY@960,,34.078413,-84.260238,,,,,,0,FALSE,POINT (2268250.862746474 1483607.87093126),273,208139,bus,2268250.863,1483607.871,208139,0.018155541
10048,902797,NORTH POINT PKY@300,,34.08645,-84.25687,,,,,,0,FALSE,POINT (2269273.240173918 1486531.510532823),273,256055,bus,2269273.24,1486531.511,256055,0.020125031
10054,902798,NORTH POINT PKY @ 960,,34.078163,-84.260696,,,,,,0,FALSE,POINT (2268112.101195316 1483517.026570369),273,208139,bus,2268112.101,1483517.027,208139,0.029037815
10056,902799,NORTH POINT PKY @ WEBB BRIDGE RD,0 NORTH POINT PKY & WEBB BRIDGE RD,34.076401,-84.260458,,,,,,0,FALSE,POINT (2268183.57738119 1482875.79284199),273,109189,bus,2268183.577,1482875.793,109189,0.010600079
10134,902902,FAIR ST SW@NORTHSIDE DR SW,0 FAIR & NORTHSIDE,33.748929,-84.404936,,,,,,0,FALSE,POINT (2224159.498985585 1363787.130015074),228,47981,bus,2224159.499,1363787.13,47981,0.024392388
10142,906745,DEERFIELD PKWY @ MORRIS RD,DEERFIELD PKY & MORRIS RD,34.090757,-84.269956,,,,,,0,FALSE,POINT (2265312.885755974 1488102.520915108),273,13404,bus,2265312.886,1488102.521,13404,0.020446386
10146,902976,WINDWARD PKWY @ JORDAN CT,5230 WINDWARD,34.092278,-84.276484,,,,,,0,FALSE,POINT (2263337.152667693 1488658.053342829),273,209026,bus,2263337.153,1488658.053,209026,0.02749483
10148,902977,SR 9 @ WINDWARD PKWY,0 CUMMING HWY & N MAIN ST,34.09459,-84.277967,,,,,,0,FALSE,POINT (2262889.104037287 1489499.846305784),273,109044,bus,2262889.104,1489499.846,109044,0.01902455
10150,902978,N MAIN ST @ COGBURN RD,0 CUMMING HWY & COGBURN RD,34.092248,-84.284312,,,,,,0,FALSE,POINT (2260967.284414367 1488649.773523714),273,241579,bus,2260967.284,1488649.774,241579,0.014835121
10168,902903,N MAIN ST @ 684,,34.091726,-84.290431,,,,,,0,FALSE,POINT (2259114.582092998 1488462.011897784),273,108908,bus,2259114.582,1488462.012,108908,0.012991211
10170,902904,N MAIN ST @ WATER OAK PL,,34.091927,-84.288615,,,,,,0,FALSE,POINT (2259664.450444577 1488534.492450913),273,234662,bus,2259664.45,1488534.492,234662,0.030892163
10172,902905,DEERFIELD PKWY @ MORRIS RD,0 DEERFIELD PKY & MORRIS RD,34.089933,-84.269247,,,,,,0,FALSE,POINT (2265527.231965176 1487802.461845169),273,222535,bus,2265527.232,1487802.462,222535,0.021902048
10174,902979,DEERFIELD PKWY @ TWO VERIZON PL,0 DEERFIELD PKY & TWO VERIZON PL,34.09337,-84.270926,,,,,,0,FALSE,POINT (2265020.191701645 1489053.656173493),273,13405,bus,2265020.192,1489053.656,13405,0.020562088
10176,902980,DEERFIELD PKWY @ THREE VERIZON PL,0 DEERFIELD PKY & VERIZON PL,34.09548,-84.267954,,,,,,0,FALSE,POINT (2265920.686809012 1489820.553685232),273,13407,bus,2265920.687,1489820.554,13407,0.017879402
10186,902981,N MAIN ST @ WINDWARD PKY W,0 MAIN & WINDWARD,34.093963,-84.279531,,,,,,0,FALSE,POINT (2262415.378233227 1489272.20815254),273,241520,bus,2262415.378,1489272.208,241520,0.013195642
10188,902982,OLD MILTON PKY @ BRIDGE POINTE DR,0 OLD MILTON PKY & BRIDGE POINTE DR,34.06256,-84.24747,,,,,,0,FALSE,POINT (2272112.329755021 1477835.893215289),273,109231,bus,2272112.33,1477835.893,109231,0.028347639
10190,902900,OLD MILTON PKWY @ CAMDEN WAY,0 OLD MILTON PKY & CAMDEN WAY,34.06334,-84.249521,,,,,,0,FALSE,POINT (2271491.421400357 1478120.220646202),273,125177,bus,2271491.421,1478120.221,125177,0.017399084
10202,906797,NORTH POINT PKY@WINDWARD PKY,,34.08848,-84.256477,,,,,,0,FALSE,POINT (2269392.874411167 1487270.096027828),273,109223,bus,2269392.874,1487270.096,109223,0.025762504
10212,903045,N MAIN ST @ HENDERSON PKWY,0 MAIN & COGBURN,34.092039,-84.285415,,,,,,0,FALSE,POINT (2260633.272723449 1488574.107217772),273,109007,bus,2260633.273,1488574.107,109007,0.013580291
10214,903046,N MAIN ST @ CANTON ST,0 MAIN & CANTON,34.088795,-84.29524,,,,,,0,FALSE,POINT (2257657.349968957 1487397.255624132),273,108897,bus,2257657.35,1487397.256,108897,0.021863993
10218,903083,OLD MILTON PKWY @ BROOKSIDE PKY,3625 OLD MILTON PKY & BROOKSIDE PKY,34.064694,-84.253908,,,,,,0,FALSE,POINT (2270163.265986737 1478614.026095712),273,11034,bus,2270163.266,1478614.026,11034,0.045503354
10220,903084,BROOKSIDE PKWY @ 3705,,34.06235,-84.2544,,,,,,0,FALSE,POINT (2270013.537675984 1477761.206163356),273,14095,bus,2270013.538,1477761.206,11035,0.176557515
10222,903085,BROOKSIDE PKWY @ 3775,,34.0613,-84.25215,,,,,,0,FALSE,POINT (2270694.624815863 1477378.549706223),273,298032,bus,2270694.625,1477378.55,11036,0.191817201
10232,903185,OLD MILTON PKWY @ ROCKBERRY LN,0 OLD MILTON PKY & ROCKBERRY LN,34.061439,-84.244415,,,,,,0,FALSE,POINT (2273037.215875146 1477427.260831731),273,109251,bus,2273037.216,1477427.261,109251,0.039124035
10234,903186,OLD MILTON PKWY @ COTTON CREEK ENTRY,0 OLD MILTON PKY & COTTON CREEK ENTRY,34.064854,-84.253526,,,,,,0,FALSE,POINT (2270278.999908115 1478672.14932142),273,11035,bus,2270279,1478672.149,11035,0.037998769
10238,902637,OLD MILTON PKWY @ 3502,,34.066705,-84.258072,,,,,,0,FALSE,POINT (2268902.898450171 1479346.901079463),273,340482,bus,2268902.898,1479346.901,340482,0.075539086
10244,902638,NORTH POINT PKY@500,,34.08513,-84.25732,,,,,,0,FALSE,POINT (2269136.571556909 1486051.300564465),273,340314,bus,2269136.572,1486051.301,340314,0.032008639
10248,902639,WINDWARD PKWY @ WESTSIDE PKWY,0 WINDWARD PKY & WESTSIDE PKY,34.087517,-84.269008,,,,,,0,FALSE,POINT (2265598.708887857 1486923.238454328),273,109202,bus,2265598.709,1486923.238,109202,0.023900842
10250,903217,MORRIS RD @ WEBB RD,0 MORRIS RD & WEBB RD,34.096344,-84.260561,,,,,,0,FALSE,POINT (2268159.054324567 1490132.815394238),273,236927,bus,2268159.054,1490132.815,236927,0.028468141
10252,903218,MORRIS RD@13010,,34.094303,-84.262563,,,,,,0,FALSE,POINT (2267552.299358211 1489390.684092162),273,218523,bus,2267552.299,1489390.684,218523,0.042582005
10254,903219,OLD MILTON PKWY @ PARK BRIDGE PKWY,0 OLD MILTON PKY & PARK BRIDGE PKY,34.060883,-84.242495,,,,,,0,FALSE,POINT (2273618.538885955 1477224.504182942),273,109253,bus,2273618.539,1477224.504,109253,0.06688551
10256,903220,WINDWARD PKWY @ N MAIN ST,0 WINDWARD PKY & N MAIN ST,34.093579,-84.278328,,,,,,0,FALSE,POINT (2262779.415652409 1489132.075435825),273,241528,bus,2262779.416,1489132.075,241528,0.026828774
10266,902641,WINDWARD PARK & RIDE,200 DRYDEN RD,34.085992,-84.260559,,,,,,0,TRUE,POINT (2268156.199720902 1486365.856010735),273,993502,bus,2268156.2,1486365.856,283560,0.091836698
10270,902643,MORRIS RD @ 12395,,34.081,-84.261262,,,,,,0,FALSE,POINT (2267941.676507981 1484549.530281111),273,208141,bus,2267941.677,1484549.53,109211,0.079919684
10272,902644,WINDWARD PKWY @ 5555,5555 WINDWARD PKY,34.087024,-84.265427,,,,,,0,FALSE,POINT (2266682.711224756 1486742.775872061),273,216424,bus,2266682.711,1486742.776,216424,0.006505416
10274,902649,DEERFIELD PKWY @ WEBB RD,0 DEERFIELD PKY & WEBB RD,34.097509,-84.264371,,,,,,0,FALSE,POINT (2267006.072191589 1490557.825312729),273,127184,bus,2267006.072,1490557.825,127184,0.034090192
10276,902650,MORRIS RD @ ONE VERIZON PL,12726 MORRIS,34.09106,-84.266782,,,,,,0,FALSE,POINT (2266273.910371572 1488211.822660671),273,13398,bus,2266273.91,1488211.823,13398,0.023132685
14002,902765,ALPHARETTA HWY @ HOUZE WAY,0 ALPHARETTA & HOUZE,34.046329,-84.339584,,,,,,0,FALSE,POINT (2244205.926237569 1471964.265831688),252,71422,bus,2244205.926,1471964.266,71422,0.014847963
14004,902766,ALPHARETTA HWY@SUN VALLEY DR,0 ALPHARETTA HWY & SUN VALLEY DR,34.049772,-84.337806,,,,,,0,FALSE,POINT (2244746.585944447 1473216.21632844),252,71660,bus,2244746.586,1473216.216,71660,0.005877997
14009,902772,ALPHARETTA HWY @ ELKINS RD,0 ALPHARETTA HWY & ELKINS RD,34.051866,-84.334413,,,,,,0,FALSE,POINT (2245775.548977872 1473976.489916637),252,71664,bus,2245775.549,1473976.49,71664,0.004083809
14010,902773,ALPHARETTA HWY@MANSELL PL,0 ALPHARETTA & MANSELL,34.054226,-84.330254,,,,,,0,FALSE,POINT (2247036.620378377 1474833.219417285),252,71670,bus,2247036.62,1474833.219,71670,0.018570457
14012,902774,ALPHARETTA HWY@11251,,34.055115,-84.329132,,,,,,0,FALSE,POINT (2247376.961503233 1475156.171955212),253,71672,bus,2247376.962,1475156.172,71672,0.025201482
14014,902767,ALPHARETTA HWY@ROSEMONT PKY,0 ALPHARETTA & ROSEMONT,34.058438,-84.326409,,,,,,0,FALSE,POINT (2248203.573595168 1476364.064434971),253,72376,bus,2248203.574,1476364.064,72376,0.022191932
14018,902768,ALPHARETTA HWY@HEMBREE RD,0 ALPHARETTA HWY & HEMBREE RD,34.060832,-84.324602,,,,,,0,FALSE,POINT (2248752.189222176 1477234.356700714),253,72382,bus,2248752.189,1477234.357,72382,0.005988135
14020,902769,ALPHARETTA HWY@HOSPITAL BLVD,0 ALPHARETTA HWY & HOSPITAL BLVD,34.062747,-84.322976,,,,,,0,FALSE,POINT (2249245.692952236 1477930.441370404),253,72385,bus,2249245.693,1477930.441,72385,0.029048594
14022,902770,ALPHARETTA HWY@NORTHMEADOW PKWY,0 ALPHARETTA HWY & NORTHMEADOW PKWY,34.065852,-84.31873,,,,,,0,FALSE,POINT (2250533.257402623 1479058.368491822),273,72394,bus,2250533.257,1479058.368,72394,0.011333843
14024,906278,ALPHARETTA HWY@HANEY DR,0 ALPHARETTA HWY & HANEY DR,34.066263,-84.316296,,,,,,0,FALSE,POINT (2251270.576822574 1479206.838548987),273,108601,bus,2251270.577,1479206.839,108601,0.006119192
14026,906279,ALPHARETTA HWY@WILLS RD,0 ALPHARETTA & WILLS,34.066277,-84.313118,,,,,,0,FALSE,POINT (2252232.989381751 1479210.540045002),273,108613,bus,2252232.989,1479210.54,108613,0.070768781
14028,906281,ALPHARETTA HWY@HANEY DR,0 ALPHARETTA & HANEY,34.066383,-84.316063,,,,,,0,FALSE,POINT (2251341.200837299 1479250.401714069),273,108601,bus,2251341.201,1479250.402,108601,0.009801261
14030,906295,ALPHARETTA HWY@UPPER HEMBREE RD,0 ALPHARETTA & UPPER HEMBREE,34.065865,-84.319,,,,,,0,FALSE,POINT (2250451.498967872 1479063.220671106),273,72394,bus,2250451.499,1479063.221,72394,0.025484451
14032,906296,ALPHARETTA HWY@HOSPITAL BLVD,0 ALPHARETTA & HOSPITAL,34.06329,-84.322723,,,,,,0,FALSE,POINT (2249322.614470075 1478127.914329944),253,209456,bus,2249322.614,1478127.914,209456,0.009532464
14034,906312,ALPHARETTA HWY@HEMBREE RD,0 ALPHARETTA & HEMBREE,34.061096,-84.324554,,,,,,0,FALSE,POINT (2248766.874431747 1477330.400060523),253,72382,bus,2248766.874,1477330.4,72382,0.012595919
14038,906337,ALPHARETTA HWY@11450,,34.057182,-84.327896,,,,,,0,FALSE,POINT (2247752.498245802 1475907.730785383),253,72376,bus,2247752.498,1475907.731,72376,0.101408791
14040,906338,ALPHARETTA HWY@11442,,34.055408,-84.329323,,,,,,0,FALSE,POINT (2247319.282189374 1475262.882258502),253,71672,bus,2247319.282,1475262.882,71672,0.02072854
14042,906339,ALPHARETTA HWY@MANSELL PL,0 ALPHARETTA & MANSELL,34.053848,-84.331345,,,,,,0,FALSE,POINT (2246705.960704339 1474696.20086929),252,281172,bus,2246705.961,1474696.201,281172,0.016125456
14046,906314,ALPHARETTA HWY@SUN VALLEY DR,0 ALPHARETTA & SUN VALLEY,34.049427,-84.338387,,,,,,0,FALSE,POINT (2244570.394783724 1473090.970810363),252,71445,bus,2244570.395,1473090.971,71445,0.020688818
14048,906315,S MAIN ST @ 571,571 S MAIN ST & MAXWELL RD,34.066226,-84.309834,,,,,,0,FALSE,POINT (2253227.468818437 1479190.573917038),273,209316,bus,2253227.469,1479190.574,209316,0.095312682
15007,906341,MAIN ST@BRADY PL,0 MAIN & BRADY,34.066297,-84.304719,,,,,,0,FALSE,POINT (2254776.498171357 1479214.280450074),273,108645,bus,2254776.498,1479214.28,108645,0.012311705
15008,906342,MAIN ST@MAXWELL RD,0 MAIN & MAXWELL,34.067867,-84.301102,,,,,,0,FALSE,POINT (2255872.597631538 1479784.122198724),273,108668,bus,2255872.598,1479784.122,108668,0.00841241
15011,906318,N MAIN ST @ CUMMING ST,0 N MAIN ST & CUMMING ST,34.07832,-84.294505,,,,,,0,FALSE,POINT (2257875.107630217 1483585.262703627),273,108861,bus,2257875.108,1483585.263,108861,0.01420321
15014,906320,S MAIN ST @ JANIS LN,0 S MAIN ST & JANIS LN,34.06975,-84.298078,,,,,,0,FALSE,POINT (2256789.229399597 1480468.129272424),273,108671,bus,2256789.229,1480468.129,108671,0.006635221
15015,903187,S MAIN ST @ DEVORE RD,0 S MAIN ST & DEVORE RD,34.068739,-84.299541,,,,,,0,FALSE,POINT (2256345.724125308 1480100.812981173),273,108669,bus,2256345.724,1480100.813,108669,0.002275497
15018,903188,NORTH POINT PKWY @ 6360,6360 NORTH POINT PKY,34.046681,-84.290142,,,,,,0,FALSE,POINT (2259182.286495123 1472070.666191992),272,107366,bus,2259182.286,1472070.666,107366,0.012816262
15020,903189,NORTH POINT PKWY @ 6250,6250 NORTH POINT PKY,34.046985,-84.290381,,,,,,0,FALSE,POINT (2259110.026368576 1472181.374530743),272,107366,bus,2259110.026,1472181.375,107366,0.014804913
15022,902705,S MAIN ST @ MAXWELL RD,0 S MAIN ST & MAXWELL RD,34.067871,-84.301473,,,,,,0,FALSE,POINT (2255760.250415959 1479785.725613382),273,108668,bus,2255760.25,1479785.726,108668,0.020304376
15026,902706,S MAIN ST @ JANIS LN,0 S MAIN ST & JANIS LN,34.069839,-84.29787,,,,,,0,FALSE,POINT (2256852.25774211 1480500.434258262),273,108671,bus,2256852.258,1480500.434,108671,0.007111468
15028,902707,HAYNES BRIDGE RD@11385,11785 HAYNES BRIDGE,34.056886,-84.286369,,,,,,0,FALSE,POINT (2260329.48418451 1475782.753122874),273,242656,bus,2260329.484,1475782.753,242656,0.016337187
15030,902708,HAYNES BRIDGE RD @ RAINWATER DR,0 HAYNES BRIDGE RD & RAINWATER DR,34.063717,-84.291553,,,,,,0,FALSE,POINT (2258762.456829837 1478270.330807052),273,108785,bus,2258762.457,1478270.331,108785,0.020356738
15032,903190,HAYNES BRIDGE RD @ DEVORE RD,0 HAYNES BRIDGE & DEVORE,34.066409,-84.292587,,,,,,0,FALSE,POINT (2258450.523490611 1479250.294880217),273,108786,bus,2258450.523,1479250.295,108786,0.033772251
15036,903191,HAYNES BRIDGE RD@11770,,34.068882,-84.293925,,,,,,0,FALSE,POINT (2258046.452559595 1480150.685971363),273,234914,bus,2258046.453,1480150.686,234914,0.01887856
15037,903192,HAYNES BRIDGE RD @ DEVORE RD,0 HAYNES BRIDGE RD & DEVORE RD,34.066134,-84.293113,,,,,,0,FALSE,POINT (2258291.109625822 1479150.422810252),273,108786,bus,2258291.11,1479150.423,108786,0.01959608
15040,902709,HAYNES BRIDGE RD @ WOODHAVEN WAY,0 HAYNES BRIDGE RD & WOODHAVEN WAY,34.063449,-84.291782,,,,,,0,FALSE,POINT (2258692.986601348 1478172.894221886),273,108785,bus,2258692.987,1478172.894,108785,0.024622819
15042,902710,HAYNES BRIDGE RD @ MORRISON PKWY,0 HAYNES BRIDGE & MORRISON,34.060412,-84.289472,,,,,,0,FALSE,POINT (2259391.228475039 1477066.926351072),273,210058,bus,2259391.228,1477066.926,210058,0.014178718
15044,902711,ALPHARETTA HWY@ROSEMONT PKY,0 ALPHARETTA & ROSEMONT,34.058564,-84.326815,,,,,,0,FALSE,POINT (2248080.683587874 1476410.106241792),253,72376,bus,2248080.684,1476410.106,72376,0.017493265
15048,902653,HAYNES BRIDGE RD @ WESTSIDE PKWY,0 HAYNES BRIDGE & MORRISON,34.061055,-84.289146,,,,,,0,FALSE,POINT (2259490.23911381 1477300.786290612),273,210058,bus,2259490.239,1477300.786,210058,0.045818672
15054,902775,ACADEMY ST @ HAYNES BRIDGE RD,0 ACADEMY & HAYNES BRIDGE,34.075399,-84.292976,,,,,,0,FALSE,POINT (2258336.7615881 1482521.775311482),273,108807,bus,2258336.762,1482521.775,108807,0.017130347
15056,902817,HAYNES BRIDGE RD @ LAKEVIEW PKWY,HAYNES BRIDGE RD & LAKEVIEW PKY,34.057292,-84.28695,,,,,,0,FALSE,POINT (2260153.692234512 1475930.696872917),273,242657,bus,2260153.692,1475930.697,242657,0.016940786
15058,902818,NORTH POINT PKWY @ 6300,6300 NORTH POINT PKY & NORTH POINT CT,34.047504,-84.28929,,,,,,0,FALSE,POINT (2259440.71882687 1472369.832893429),272,107369,bus,2259440.719,1472369.833,107369,0.049465266
15060,902819,NORTH POINT PKWY @ 6751,6751 NORTH POINT PKY,34.044419,-84.297923,,,,,,0,FALSE,POINT (2256824.341228426 1471250.492684968),272,107166,bus,2256824.341,1471250.493,107166,0.017842986
15062,902820,NORTH POINT PKWY @ NORTH POINT CT,0 NORTH POINT PKY & NORTH POINT CT,34.047736,-84.288493,,,,,,0,FALSE,POINT (2259682.230806747 1472453.965790635),272,107369,bus,2259682.231,1472453.966,107369,0.003277407
15066,902776,HAYNES BRIDGE RD@ROCK MILL RD,,34.051601,-84.285458,,,,,,0,FALSE,POINT (2260603.163121028 1473859.299424108),272,218065,bus,2260603.163,1473859.299,218065,0.061231611
15068,902777,HAYNES BRIDGE RD @ NORTHWINDS PKWY,HAYNES BRIDGE RD & NORTHWINDS PKY,34.058607,-84.287375,,,,,,0,FALSE,POINT (2260025.53900525 1476409.357519785),273,125502,bus,2260025.539,1476409.358,125502,0.01708351
15070,902778,NORTH POINT PKY@ROYAL BLVDS,NORTH POINT PKY & ROYAL BLVD S,34.054879,-84.27319,,,,,,0,FALSE,POINT (2264320.205687709 1475048.022989286),273,108184,bus,2264320.206,1475048.023,108184,0.010747841
15072,902779,NORTH POINT PKY@ROYAL BLVD S,4800 NORTH POINT PKY & ROYAL BLVD S,34.054557,-84.273179,,,,,,0,FALSE,POINT (2264323.415325217 1474930.84856712),272,108184,bus,2264323.415,1474930.849,108184,0.011475951
15074,902821,NORTH POINT PKY@GEORGIA LANE,0 NORTH POINT PKY & GEORGIA LN,34.04973,-84.283363,,,,,,0,FALSE,POINT (2261236.932100391 1473177.740881372),272,182732,bus,2261236.932,1473177.741,182732,0.011371743
15076,902822,NORTH POINT PKY @ KIMBALL BRIDGE RD,0 NORTH POINT PKY,34.049783,-84.281508,,,,,,0,FALSE,POINT (2261798.818929731 1473196.39111478),272,107413,bus,2261798.819,1473196.391,107413,0.026289575
15078,902846,HAYNES BRIDGE RD@NORTH POINT DR,0 HAYNES BRIDGE & NORTH POINT,34.049964,-84.285986,,,,,,0,FALSE,POINT (2260442.544904018 1473263.806116705),272,218066,bus,2260442.545,1473263.806,218066,0.051856087
15080,902847,NORTH POINT PKY@5055,5055 NORTH POINT & KIMBALL BRIDGE,34.054353,-84.276901,,,,,,0,FALSE,POINT (2263196.034269234 1474857.810064751),272,108181,bus,2263196.034,1474857.81,108181,0.101476234
15082,902780,NORTH POINT PKWY @ 5055,,34.054726,-84.277286,,,,,,0,FALSE,POINT (2263079.573820288 1474993.665002876),272,108181,bus,2263079.574,1474993.665,108181,0.120475342
15084,902781,HAYNES BRIDGE RD @ THOMPSON ST,0 HAYNES BRIDGE & THOMPSON,34.07236,-84.293587,,,,,,0,FALSE,POINT (2258150.377716302 1481416.154266686),273,302558,bus,2258150.378,1481416.154,302528,0.032198324
15086,902948,NORTH POINT PKY@MILL CREEK AVE,0 NORTH POINT PKY & MILL CREEK AVE,34.049988,-84.280963,,,,,,0,FALSE,POINT (2261963.978438837 1473270.802657841),272,107416,bus,2261963.978,1473270.803,107416,0.005219411
15088,902949,NORTH POINT PKY @ NORTH POINT DR,0 NORTH POINT PKY & NORTH POINT DR,34.050212,-84.281017,,,,,,0,FALSE,POINT (2261947.713391331 1473352.331106575),272,107416,bus,2261947.713,1473352.331,107416,0.010819665
15090,902950,NORTH POINT PKY@ROCK MILL RD,0 NORTH POINT & ROCK MILL,34.051814,-84.279206,,,,,,0,FALSE,POINT (2262496.889320913 1473934.666363809),272,107420,bus,2262496.889,1473934.666,107420,0.016634275
15092,902951,NORTH POINT PKY@ROCK MILL RD,0 NORTH POINT PKY & ROCK MILL RD,34.051938,-84.279652,,,,,,0,FALSE,POINT (2262361.852496161 1473979.936947095),272,107420,bus,2262361.852,1473979.937,107420,0.021687583
16010,902917,NORTH POINT PKY@ROYAL BLVD S,0 NORTH POINT & ROYAL,34.054603,-84.271739,,,,,,0,FALSE,POINT (2264759.572628359 1474947.136320164),272,108187,bus,2264759.573,1474947.136,108187,0.034266823
16016,902918,NORTH POINT PKY @ 4000,,34.065942,-84.262005,,,,,,0,FALSE,POINT (2267711.602094739 1479070.343623863),273,340889,bus,2267711.602,1479070.344,340889,0.027193523
16018,902919,NORTH POINT PKY@PRESTON RIDGE RD,0 NORTH POINT & PRESTON RIDGE,34.071018,-84.256571,,,,,,0,FALSE,POINT (2269358.828556697 1480915.937323782),273,109188,bus,2269358.829,1480915.937,109188,0.023516113
16020,902953,NORTH POINT PKY @ 3980,,34.069323,-84.260289,,,,,,0,FALSE,POINT (2268232.392300012 1480300.161042547),273,109173,bus,2268232.392,1480300.161,109173,0.027476781
16022,902954,NORTH POINT PKY@3180,3200 NORTH POINT,34.074163,-84.257003,,,,,,0,FALSE,POINT (2269229.022727993 1482060.47388571),273,340312,bus,2269229.023,1482060.474,340312,0.021331283
16023,902955,NORTH POINT PKY @ PRESTON RIDGE RD,0 NORTH POINT & PRESTON RIDGE,34.071684,-84.256765,,,,,,0,FALSE,POINT (2269300.295660728 1481158.337009324),273,109188,bus,2269300.296,1481158.337,109188,0.023781411
16024,902920,NORTH POINT PKY @ 3180,,34.074037,-84.257706,,,,,,0,FALSE,POINT (2269016.109798305 1482014.813018105),273,340312,bus,2269016.11,1482014.813,340312,0.042099809
16026,906734,NORTH POINT PKY @ 4501,NORTH POINT PKY & ROYAL DR,34.060519,-84.265895,,,,,,0,FALSE,POINT (2266531.661476481 1477098.113375006),273,340365,bus,2266531.661,1477098.113,340365,0.015991893
16028,902921,NORTH POINT PKY @ 4125,,34.06661,-84.262158,,,,,,0,FALSE,POINT (2267665.495337372 1479313.462417641),273,340889,bus,2267665.495,1479313.462,340889,0.022610673
16030,902922,NORTH POINT PKY @ OLD MILTON PKY,3980 NORTH POINT PKY & OLD MILTON PKY,34.068411,-84.260748,,,,,,0,FALSE,POINT (2268093.091502544 1479968.424795209),273,109173,bus,2268093.092,1479968.425,109173,0.040833106
20010,903070,ATLANTA ST@OXBO RD,0 ATLANTA ST & OXBO RD,34.017582,-84.362148,,,,,,0,FALSE,POINT (2237351.210029852 1461515.989707266),252,70578,bus,2237351.21,1461515.99,70578,0.006903882
20012,903071,ATLANTA ST@OAK ST,0 ATLANTA & OAK,34.01968,-84.361641,,,,,,0,FALSE,POINT (2237506.288004375 1462279.124167222),252,70584,bus,2237506.288,1462279.124,70584,0.008970825
20014,903098,ALPHARETTA ST@ELIZABETH WAY,0 ALPHARETTA ST & ELIZABETH WAY,34.024141,-84.360722,,,,,,0,FALSE,POINT (2237787.820714635 1463901.879808206),252,70603,bus,2237787.821,1463901.88,70603,0.005039453
20016,903099,ALPHARETTA ST@NORCROSS ST,0 ALPHARETTA & NORCROSS,34.025188,-84.360458,,,,,,0,FALSE,POINT (2237868.5294466 1464282.714575396),252,70607,bus,2237868.529,1464282.715,70607,0.017071171
20018,903100,ALPHARETTA ST@CHERRY ST,0 ALPHARETTA & CHERRY,34.027241,-84.358696,,,,,,0,FALSE,POINT (2238403.781155549 1465028.762233052),252,339081,bus,2238403.781,1465028.762,339081,0.006282088
20020,903101,ALPHARETTA ST@WOODSTOCK ST,0 ALPHARETTA & WOODSTOCK,34.029003,-84.356476,,,,,,0,FALSE,POINT (2239077.569017758 1465668.671485206),252,71243,bus,2239077.569,1465668.671,71243,0.015403231
20024,903072,ALPHARETTA ST @ THOMAS DR,,34.03132,-84.352794,,,,,,0,FALSE,POINT (2240194.623894552 1466509.742671801),252,71268,bus,2240194.624,1466509.743,71268,0.009368261
20026,903073,ALPHARETTA ST@1207,,34.032179,-84.351299,,,,,,0,FALSE,POINT (2240648.109968374 1466821.498959824),252,71268,bus,2240648.11,1466821.499,71268,0.096288583
20028,903074,ALPHARETTA ST@ALPINE DR,0 ALPHARETTA & ALPINE,34.034595,-84.346985,,,,,,0,FALSE,POINT (2241956.606467434 1467698.313502244),252,71313,bus,2241956.606,1467698.314,71313,0.034977306
20032,903075,ALPHARETTA ST @ STRICKLAND RD,0 ALPHARETTA ST & STRICKLAND RD,34.031257,-84.353143,,,,,,0,FALSE,POINT (2240088.849760137 1466487.010382134),252,71268,bus,2240088.85,1466487.01,71268,0.027171236
20036,903102,ALPHARETTA ST@WOODSTOCK ST,0 ALPHARETTA ST & WOODSTOCK ST,34.029726,-84.355608,,,,,,0,FALSE,POINT (2239341.029328252 1465931.273173425),252,71245,bus,2239341.029,1465931.273,71245,0.002346583
20038,903103,ALPHARETTA ST @ CHERRY ST,0 ALPHARETTA ST & CHERRY WAY,34.028401,-84.357669,,,,,,0,FALSE,POINT (2238715.72148379 1465450.285531446),252,71242,bus,2238715.721,1465450.286,71242,0.0334118
20040,903104,ALPHARETTA ST@GREEN ST,0 ALPHARETTA ST & GREEN ST,34.026137,-84.359828,,,,,,0,FALSE,POINT (2238060.058257439 1464627.679606509),252,70610,bus,2238060.058,1464627.68,70610,0.005084694
20042,903105,ALPHARETTA ST@ELIZABETH WAY,0 ALPHARETTA ST & ELIZABETH WAY,34.024347,-84.360722,,,,,,0,FALSE,POINT (2237787.962773525 1463976.839849002),252,70603,bus,2237787.963,1463976.84,70603,0.018947981
20044,903166,ATLANTA ST@OXBO RD,0 ATLANTA ST & OXBO RD,34.017224,-84.362486,,,,,,0,FALSE,POINT (2237248.544589232 1461385.915138697),252,70578,bus,2237248.545,1461385.915,70578,0.024581871
20046,902622,ATLANTA ST@OAK ST,0 ATLANTA ST & OAK ST,34.020123,-84.361767,,,,,,0,FALSE,POINT (2237468.417169785 1462440.397242826),252,70584,bus,2237468.417,1462440.397,70584,0.023465435
20050,902623,ATLANTA ST@HILL ST,0 ATLANTA ST & HILL ST,34.021609,-84.361604,,,,,,0,FALSE,POINT (2237518.835158438 1462981.034071819),252,70597,bus,2237518.835,1462981.034,70597,0.002997212
20052,902719,MAIN ST@PARK ST,0 MAIN & PARK,33.524877,-84.664778,,,,,,0,FALSE,POINT (2144785.309598345 1282544.340442026),165,17549,bus,2144785.31,1282544.34,17549,0.01062289
20054,902720,ALPHARETTA ST@THOMAS DR,0 ALPHARETTA & THOMAS,34.030607,-84.353944,,,,,,0,FALSE,POINT (2239845.747473505 1466250.928717201),252,71268,bus,2239845.747,1466250.929,71268,0.090605767
21009,902721,MANSELL RD@901,,34.042784,-84.336408,,,,,,0,FALSE,POINT (2245165.811937428 1470672.683962885),252,125387,bus,2245165.812,1470672.684,125387,0.060720538
21010,902722,MANSELL RD@EAGLES CREST VILLAGE LN,0 MANSELL RD & EAGLESCREST VILLAGE LN,34.042757,-84.338995,,,,,,0,FALSE,POINT (2244382.1484526 1470664.168639043),252,71421,bus,2244382.148,1470664.169,71421,0.013952029
21011,902624,MANSELL RD@WARSAW RD,0 MANSELL & WARSAW,34.042604,-84.330572,,,,,,0,FALSE,POINT (2246933.532007966 1470604.303254621),252,71659,bus,2246933.532,1470604.303,71659,0.016078136
21012,902625,MANSELL RD@OLD ROSWELL RD,0 MANSELL RD & OLD ROSWELL RD,34.041443,-84.324275,,,,,,0,FALSE,POINT (2248840.355069153 1470178.837342356),252,71713,bus,2248840.355,1470178.837,71713,0.002840711
21014,902626,MANSELL RD@DUKE DR,0 MANSELL RD & DUKE DR,34.040092,-84.319005,,,,,,0,FALSE,POINT (2250436.021969108 1469684.812407492),272,71723,bus,2250436.022,1469684.812,71723,0.018414428
21018,902627,MANSELL RD@WARSAW RD,0 MANSELL & WARSAW,34.042456,-84.328608,,,,,,0,FALSE,POINT (2247528.377451945 1470549.501303301),252,209328,bus,2247528.377,1470549.501,209328,0.013689475
21023,902723,MANSELL RD@WESTSIDE PKY,0 MANSELL RD & WESTSIDE PKY,34.040324,-84.319267,,,,,,0,FALSE,POINT (2250356.781030817 1469769.351799678),272,71723,bus,2250356.781,1469769.352,71723,0.016914396
21025,902724,MANSELL RD@WARSAW RD,0 MANSELL RD & WARSAW RD,34.042695,-84.329196,,,,,,0,FALSE,POINT (2247350.399555131 1470636.752044734),252,209328,bus,2247350.4,1470636.752,209328,0.044170884
21029,902628,MANSELL RD@EAGLES CREST VILLAGE LN,0 MANSELL RD & EAGLESCREST VILLAGE LN,34.042829,-84.338711,,,,,,0,FALSE,POINT (2244468.22102364 1470690.223600912),252,71421,bus,2244468.221,1470690.224,71421,0.003548217
21038,902787,HOLCOMB BRIDGE RD@ALPHARETTA ST,0 HOLCOMB BRIDGE RD & ALPHARETTA ST,34.035876,-84.342867,,,,,,0,FALSE,POINT (2243204.942127218 1468162.276802232),252,337756,bus,2243204.942,1468162.277,337756,0.01819302
21042,902788,HOLCOMB BRIDGE RD@ALPHARETTA ST,0 HOLCOMB BRIDGE & ALPHARETTA,34.034755,-84.34199,,,,,,0,FALSE,POINT (2243469.923496567 1467753.906439197),252,71333,bus,2243469.923,1467753.906,71333,0.009286073
21044,902789,HOLCOMB BRIDGE RD@GRIMES BRIDGE RD,0 HOLCOMB BRIDGE RD & GRIMES BRIDGE RD,34.032834,-84.341197,,,,,,0,FALSE,POINT (2243708.967794926 1467054.47455543),252,71331,bus,2243708.968,1467054.475,71331,0.002709269
21046,902832,HOLCOMB BRIDGE RD@OLD ROSWELL RD,0 HOLCOMB BRIDGE & OLD ROSWELL,34.032943,-84.34081,,,,,,0,FALSE,POINT (2243826.277938915 1467093.938260347),252,71332,bus,2243826.278,1467093.938,71332,0.015810382
21048,902856,HOLCOMB BRIDGE RD@OLD ROSWELL RD,0 HOLCOMB BRIDGE & OLD ROSWELL,34.031756,-84.339365,,,,,,0,FALSE,POINT (2244263.315319782 1466661.266368454),252,125749,bus,2244263.315,1466661.266,125749,0.097395311
21050,902857,HOLCOMB BRIDGE RD@MARKET PL,0 HOLCOMB BRIDGE RD & MARKET PL,34.031295,-84.339352,,,,,,0,FALSE,POINT (2244266.97080128 1466493.509219149),252,125749,bus,2244266.971,1466493.509,125749,0.075810155
21052,902858,HOLCOMB BRIDGE RD@MARKET PL,0 HOLCOMB BRIDGE & MARKET,34.030893,-84.338273,,,,,,0,FALSE,POINT (2244593.617401331 1466346.678222609),252,125749,bus,2244593.617,1466346.678,125749,0.013837159
21054,902790,HOLCOMB BRIDGE RD@MARKET PL,0 HOLCOMB BRIDGE RD & MARKET PL,34.030606,-84.338436,,,,,,0,FALSE,POINT (2244544.059780854 1466242.326354074),252,125749,bus,2244544.06,1466242.326,125749,0.012469044
21056,902791,HOLCOMB BRIDGE RD@WARSAW RD,0 HOLCOMB BRIDGE RD & WARSAW RD,34.028137,-84.335359,,,,,,0,FALSE,POINT (2245474.789071196 1465342.347225641),252,71495,bus,2245474.789,1465342.347,71495,0.002519241
21058,902792,HOLCOMB BRIDGE RD @ WARSAW RD,0 HOLCOMB BRIDGE RD & WARSAW RD,34.028164,-84.33501,,,,,,0,FALSE,POINT (2245580.54151347 1465351.998055501),252,71496,bus,2245580.542,1465351.998,71496,0.012197533
21060,902829,HOLCOMB BRIDGE RD@RIVERWOOD LN,0 HOLCOMB BRIDGE RD & RIVERWOOD LN,34.025972,-84.332631,,,,,,0,FALSE,POINT (2246300.012357187 1464553.188396302),252,71485,bus,2246300.012,1464553.188,71485,0.018104355
21062,902830,HOLCOMB BRIDGE RD @ OLD HOLCOMB BRIDGE RD,0 HOLCOMB BRIDGE RD & OLD HOLCOMB BRIDGE RD,34.025936,-84.332173,,,,,,0,FALSE,POINT (2246438.754642193 1464539.863980992),252,71485,bus,2246438.755,1464539.864,71485,0.008823844
21064,902831,HOLCOMB BRIDGE RD@DOGWOOD RD,0 HOLCOMB BRIDGE RD & DOGWOOD RD,34.023851,-84.329599,,,,,,0,FALSE,POINT (2247217.410464859 1463779.916123951),252,71488,bus,2247217.41,1463779.916,71488,0.00912216
21066,902962,HOLCOMB BRIDGE RD@DOGWOOD RD,0 HOLCOMB BRIDGE RD & DOGWOOD RD,34.023663,-84.329729,,,,,,0,FALSE,POINT (2247177.913540526 1463711.568736342),252,71488,bus,2247177.914,1463711.569,71488,0.012632352
21070,902963,ALPHARETTA ST@MANSELL CIR,0 ALPHARETTA ST & MANSELL CIR,34.03456,-84.346412,,,,,,0,FALSE,POINT (2242130.172405632 1467685.272275208),252,71313,bus,2242130.172,1467685.272,71313,0.004232265
21074,902965,ALPHARETTA ST@COMMERCE PKY,0 ALPHARETTA & COMMERCE,34.03909,-84.34285,,,,,,0,FALSE,POINT (2243212.105099699 1469331.792203644),252,14221,bus,2243212.105,1469331.792,14221,0.011437787
21076,902923,ALPHARETTA ST@MANSELL RD,0 ALPHARETTA & MANSELL,34.041012,-84.341972,,,,,,0,FALSE,POINT (2243479.275855753 1470030.721517809),252,242684,bus,2243479.276,1470030.722,242684,0.027430886
21079,902924,ALPHARETTA ST@MANSELL RD,0 ALPHARETTA & MANSELL,34.042066,-84.341461,,,,,,0,FALSE,POINT (2243634.724801035 1470413.991115429),252,242686,bus,2243634.725,1470413.991,242686,0.00812045
21080,902925,ALPHARETTA HWY@HOUZE WAY,0 ALPHARETTA & HOUZE,34.045967,-84.340134,,,,,,0,FALSE,POINT (2244039.105392517 1471832.821463081),252,242690,bus,2244039.105,1471832.821,242690,0.037574361
21082,902926,ALPHARETTA HWY@MANSELL RD,0 ALPHARETTA & MANSELL,34.043225,-84.341303,,,,,,0,FALSE,POINT (2243683.305750648 1470835.651704401),252,71420,bus,2243683.306,1470835.652,71420,0.023763062
21084,902966,ALPHARETTA ST@1240,1240 ALPHARETTA ST & EAGLESCREST VILLAGE LN,34.032394,-84.351059,,,,,,0,FALSE,POINT (2240720.960089701 1466899.602995945),252,71268,bus,2240720.96,1466899.603,71268,0.115920324
21096,902967,ALPHARETTA ST@HOUZE RD,0 ALPHARETTA ST & HOUZE RD,34.038247,-84.343293,,,,,,0,FALSE,POINT (2243077.37759943 1469025.268923054),252,242730,bus,2243077.378,1469025.269,242730,0.008137897
21097,902968,NORTH POINT PKWY @ NORTH POINT CT,0 NORTH POINT PKY & NORTH POINT CT,34.047978,-84.288581,,,,,,0,FALSE,POINT (2259655.680568177 1472542.057611241),272,107369,bus,2259655.681,1472542.058,107369,0.014267729
21098,902927,HOLCOMB BRIDGE RD@OLD DOGWOOD RD,0 HOLCOMB BRIDGE RD & OLD DOGWOOD RD,34.022482,-84.326959,,,,,,0,FALSE,POINT (2248016.509751869 1463280.497348655),252,125737,bus,2248016.51,1463280.497,125737,0.002759036
21102,902928,HAYNES BRIDGE RD @ NORTH POINT PKWY,0 HAYNES BRIDGE & NORTH POINT,34.049061,-84.28672,,,,,,0,FALSE,POINT (2260219.83706986 1472935.478261058),272,218067,bus,2260219.837,1472935.478,218067,0.029953844
21104,903114,HAYNES BRIDGE RD @ NORTH POINT DR,0 HAYNES BRIDGE & NORTH POINT,34.050373,-84.286285,,,,,,0,FALSE,POINT (2260352.154330997 1473412.740709724),272,218066,bus,2260352.154,1473412.741,218066,0.026622738
21112,903079,HOLCOMB BRIDGE RD@GRIMES BRIDGE RD,0 HOLCOMB BRIDGE RD & GRIMES BRIDGE RD,34.033917,-84.34207,,,,,,0,FALSE,POINT (2243445.165348921 1467449.013040955),252,242742,bus,2243445.165,1467449.013,242742,0.0149709
21120,903080,ALPHARETTA HWY@HOUZE WAY,0 ALPHARETTA & HOUZE,34.045088,-84.340153,,,,,,0,FALSE,POINT (2244032.807966807 1471512.976483262),252,242690,bus,2244032.808,1471512.976,242690,0.023198367
21122,903116,MANSELL RD@KINGSWOOD PL,0 MANSELL RD & KINGSWOOD PL,34.039993,-84.321853,,,,,,0,FALSE,POINT (2249573.232024145 1469650.083895526),252,125250,bus,2249573.232,1469650.084,125250,0.017641473
21124,903117,MANSELL RD@980,,34.042966,-84.332759,,,,,,0,FALSE,POINT (2246271.264413638 1470737.097477618),252,234909,bus,2246271.264,1470737.097,234909,0.027752055
21126,903118,MANSELL RD@WARSAW RD,0 MANSELL RD & WARSAW RD,34.042668,-84.33128,,,,,,0,FALSE,POINT (2246719.10362184 1470627.936063358),252,205160,bus,2246719.104,1470627.936,205160,0.003153411
21128,903119,MANSELL RD@DAVIS DR,0 MANSELL RD & DAVIS DR,34.040315,-84.315295,,,,,,0,FALSE,POINT (2251559.99790353 1469764.306304787),272,125240,bus,2251559.998,1469764.306,125240,0.01885118
21950,903120,MANSELL PARK & RIDE - ON RAMP,2158 MANSELL RD,34.038139,-84.313456,,,,,,0,TRUE,POINT (2252115.943117123 1468971.690261131),272,991503,bus,2252115.943,1468971.69,299959,0.066194564
21951,903177,MANSELL PARK & RIDE - IN LOT,2158 MANSELL RD,34.038643,-84.313173,,,,,,0,TRUE,POINT (2252201.935831099 1469154.965071898),272,991503,bus,2252201.936,1469154.965,107138,0.054488552
21954,903078,ALPHARETTA ST@10730,10730 ALPHARETTA HWY,34.041281,-84.342017,,,,,,0,FALSE,POINT (2243465.811991406 1470128.629812291),252,242684,bus,2243465.812,1470128.63,242684,0.011311032
21960,903113,MANSELL RD@950,,34.042865,-84.336136,,,,,,0,FALSE,POINT (2245248.254233476 1470702.022078183),252,71647,bus,2245248.254,1470702.022,71647,0.067151808
21962,902633,MANSELL RD@OLD ROSWELL RD,0 MANSELL RD & OLD ROSWELL RD,34.042445,-84.325824,,,,,,0,FALSE,POINT (2248371.695947716 1470544.175694325),252,71717,bus,2248371.696,1470544.176,71717,0.010632195
21964,902634,MANSELL RD@KINGSWOOD PL,0 MANSELL RD & KINGSWOOD PL,34.040244,-84.32182,,,,,,0,FALSE,POINT (2249583.367066762 1469741.403712562),252,125250,bus,2249583.367,1469741.404,125250,0.020876962
21966,902635,MANSELL RD@COLONIAL CTR PKWY,0 MANSELL RD & COLONIAL CENTER PKY,34.042633,-84.327472,,,,,,0,FALSE,POINT (2247872.593910661 1470613.366299191),252,182676,bus,2247872.594,1470613.366,182676,0.038274596
22016,902636,NORTH POINT PKWY @ MANSELL RD,0 NORTH POINT & MANSELL,34.038311,-84.305962,,,,,,0,FALSE,POINT (2254386.212818866 1469031.105889261),272,107153,bus,2254386.213,1469031.106,107153,0.041492503
22018,902682,NORTH POINT PKWY @ 7731,,34.039226,-84.306024,,,,,,0,FALSE,POINT (2254367.884277381 1469364.085471992),272,107153,bus,2254367.884,1469364.085,107153,0.096968418
22020,902731,NORTH POINT PKWY @ 7601,7601 NORTH POINT PKY,34.040913,-84.304853,,,,,,0,FALSE,POINT (2254723.443762337 1469977.477261407),272,500002,bus,2254723.444,1469977.477,500002,0.085699118
22022,902732,NORTH POINT PKWY @ 7301,7301 NORTH POINT PKY,34.042389,-84.303216,,,,,,0,FALSE,POINT (2255220.04645562 1470513.905000548),272,500002,bus,2255220.046,1470513.905,500002,0.053202801
22024,902733,NORTH POINT PKWY @ 7391,7391 NORTH POINT PKY & CENTER BRIDGE RD,34.043462,-84.301066,,,,,,0,FALSE,POINT (2255871.83389136 1470903.490892611),272,107163,bus,2255871.834,1470903.491,107163,0.094064941
22028,902735,NORTH POINT PKWY @ 6440,6440 NORTH POINT PKY,34.045,-84.294158,,,,,,0,FALSE,POINT (2257965.065361202 1471460.467887281),272,107356,bus,2257965.065,1471460.468,107356,0.012447465
22030,902841,NORTH POINT PWKY @ 6499,6499 NORTH POINT PKY,34.046082,-84.292433,,,,,,0,FALSE,POINT (2258488.067486282 1471853.544399264),272,322354,bus,2258488.067,1471853.544,322354,0.061344991
22032,902842,NORTH POINT PKWY @ 6400,,34.045876,-84.292137,,,,,,0,FALSE,POINT (2258577.635551363 1471778.474132749),272,322354,bus,2258577.636,1471778.474,322354,0.068875198
22042,902801,NORTH POINT PKWY @ ENCORE PKWY,0 NORTH POINT PKY & CENTER BRIDGE RD,34.044106,-84.299527,,,,,,0,FALSE,POINT (2256338.323746282 1471137.223785871),272,107163,bus,2256338.324,1471137.224,107163,0.007927423
22044,902802,NORTH POINT PKWY @ ENCORE PKWY,0 NORTH POINT PKY & ENCORE PKWY,34.043757,-84.299767,,,,,,0,FALSE,POINT (2256265.459622464 1471010.322575855),272,107163,bus,2256265.46,1471010.323,107163,0.020309089
22058,902871,NORTH POINT PKWY @ 6800,6800 NORTH POINT PKY,34.044124,-84.298108,,,,,,0,FALSE,POINT (2256768.164784889 1471143.218691394),272,107166,bus,2256768.165,1471143.219,107166,0.005133484
22060,902872,NORTH POINT PKWY @ MANSELL RD,0 NORTH POINT & MANSELL,34.0383,-84.30651,,,,,,0,FALSE,POINT (2254220.200072439 1469027.329517141),272,107153,bus,2254220.2,1469027.33,107153,0.030307027
22066,902803,NORTH POINT PKWY @ 7500,7500 NORTH POINT PKY & NORTH POINT CT,34.040627,-84.304689,,,,,,0,FALSE,POINT (2254772.982915958 1469873.339324079),272,500002,bus,2254772.983,1469873.339,500002,0.094792098
22068,902804,NORTH POINT PKWY @ 7300,7300 NORTH POINT PKY,34.042863,-84.302059,,,,,,0,FALSE,POINT (2255570.751297546 1470685.920587678),272,500002,bus,2255570.751,1470685.921,500002,0.123773802
26002,902929,ROSWELL RD@HOPE RD,0 ROSWELL & HOPE,33.989597,-84.351974,,,,,,0,FALSE,POINT (2240415.584023913 1451327.009633348),252,70835,bus,2240415.584,1451327.01,70835,0.045692912
26004,902930,ROSWELL RD@HUNTCLIFF,0 ROSWELL & HUNTCLIFF,33.992786,-84.351707,,,,,,0,FALSE,POINT (2240498.608596154 1452487.282042525),252,70844,bus,2240498.609,1452487.282,70844,0.011790674
26006,902931,ROSWELL RD @ 8740,,33.994862,-84.351372,,,,,,0,FALSE,POINT (2240601.50698233 1453242.517526645),252,338503,bus,2240601.507,1453242.518,338503,0.028235175
26007,902932,ROSWELL RD@RIVER PKY,0 ROSWELL RD & N RIVER PKY,34.001514,-84.35046,,,,,,0,FALSE,POINT (2240882.264616271 1455662.564058953),252,70927,bus,2240882.265,1455662.564,70927,0.00253764
26010,902983,ROSWELL RD@ROBERTS DR,0 ROSWELL RD & ROBERTS DR,34.002901,-84.350504,,,,,,0,FALSE,POINT (2240869.835400855 1456167.292743549),252,70928,bus,2240869.835,1456167.293,70928,0.002199826
26011,902984,ROSWELL RD@DUNWOODY PL,0 ROSWELL & DUNWOODY,33.999743,-84.350622,,,,,,0,FALSE,POINT (2240832.011234148 1455018.216766215),252,295879,bus,2240832.011,1455018.217,295879,0.028553769
26018,902985,ROSWELL RD@8775,,33.998459,-84.350533,,,,,,0,FALSE,POINT (2240858.146075194 1454550.943703921),252,295777,bus,2240858.146,1454550.944,295777,0.048049172
26020,902933,ROSWELL RD@9040,,34.000168,-84.350372,,,,,,0,FALSE,POINT (2240908.05607912 1455172.730752817),252,295879,bus,2240908.056,1455172.731,295879,0.005365006
26022,903050,ROSWELL RD@RIVER PKWY,0 ROSWELL & RIVER,34.001392,-84.350327,,,,,,0,FALSE,POINT (2240922.492548621 1455618.098143349),252,70927,bus,2240922.493,1455618.098,70927,0.009803165
26025,903051,ROSWELL RD@ROBERTS DR,0 ROSWELL RD & ROBERTS DR,34.002964,-84.350417,,,,,,0,FALSE,POINT (2240896.2426545 1456190.170032755),252,70928,bus,2240896.243,1456190.17,70928,0.005022154
26026,903129,ATLANTA ST@RIVERSIDE RD,0 ROSWELL RD & RIVERSIDE RD,34.005827,-84.35068,,,,,,0,FALSE,POINT (2240818.409386179 1457232.108507338),252,70948,bus,2240818.409,1457232.109,70948,0.006319355
26029,903130,ATLANTA ST@CHATTAHOOCHEE CIR,0 S ATLANTA ST & CHATTAHOOCHEE CIR,34.007536,-84.353101,,,,,,0,FALSE,POINT (2240085.860271493 1457855.310367097),252,70947,bus,2240085.86,1457855.31,70947,0.004757218
26030,903131,ATLANTA ST@WARM SPRINGS CIR,0 S ATLANTA ST & WARM SPRINGS CIR,34.00877,-84.35729,,,,,,0,FALSE,POINT (2238817.250271293 1458306.677873235),252,70934,bus,2238817.25,1458306.678,70934,0.004964862
26032,903132,ATLANTA ST@JONES DR,0 S ATLANTA ST & JONES DR,34.008653,-84.359842,,,,,,0,FALSE,POINT (2238043.816325265 1458265.552330739),252,70296,bus,2238043.816,1458265.552,70296,0.005894551
26034,903052,ATLANTA ST@KING ST,0 ATLANTA ST & KING ST,34.012419,-84.362778,,,,,,0,FALSE,POINT (2237156.718332401 1459637.625890291),252,267470,bus,2237156.718,1459637.626,267470,0.010933341
26036,903053,ATLANTA ST@MILL ST,0 ATLANTA & MILL,34.014088,-84.362854,,,,,,0,FALSE,POINT (2237134.851672313 1460244.990819464),252,232718,bus,2237134.852,1460244.991,232718,0.002485431
26040,903081,ATLANTA ST@MAPLE ST,0 ATLANTA & MAPLE,34.016396,-84.362694,,,,,,0,FALSE,POINT (2237184.942185941 1461084.740361537),252,70576,bus,2237184.942,1461084.74,70576,0.009931792
26044,903082,ATLANTA ST@WARM SPRINGS CIR,0 S ATLANTA ST & WARM SPRINGS CIR,34.008698,-84.357443,,,,,,0,FALSE,POINT (2238770.836624514 1458280.564628769),252,70934,bus,2238770.837,1458280.565,70934,0.014141542
26045,903133,ATLANTA ST@CHATTAHOOCHEE CIR,0 ATLANTA & CHATTAHOOCHEE,34.007196,-84.352782,,,,,,0,FALSE,POINT (2240182.306091717 1457731.41449084),252,70947,bus,2240182.306,1457731.414,70947,0.025121234
26046,903134,ATLANTA ST@JONES DR,0 S ATLANTA ST & JONES DR,34.008608,-84.360006,,,,,,0,FALSE,POINT (2237994.087074404 1458249.271366017),252,70296,bus,2237994.087,1458249.271,70296,0.005272945
26047,903135,ATLANTA ST@AZALEA DR,0 S ATLANTA ST & AZALEA DR,34.005935,-84.350832,,,,,,0,FALSE,POINT (2240772.416636132 1457271.490593709),252,70948,bus,2240772.417,1457271.491,70948,0.005225656
26048,903136,ATLANTA ST@426,408 S ATLANTA ST,34.009771,-84.361282,,,,,,0,FALSE,POINT (2237608.213503574 1458673.199282925),252,70294,bus,2237608.214,1458673.199,70294,0.053242325
26050,903141,ATLANTA ST@CHATTAHOOCHEE ST,0 ATLANTA ST & CHATTAHOOCHEE ST,34.01181,-84.3628,,,,,,0,FALSE,POINT (2237149.627441581 1459416.033912769),252,70300,bus,2237149.627,1459416.034,70300,0.013594716
26052,903142,DUNWOODY PL @ 8601,,33.990562,-84.343491,,,,,,0,FALSE,POINT (2242987.440508946 1451673.612716808),252,340886,bus,2242987.441,1451673.613,340886,0.005125225
26056,902651,DUNWOODY PL @ 8725,,33.995672,-84.349422,,,,,,0,FALSE,POINT (2241193.053480587 1453536.202196781),252,338505,bus,2241193.053,1453536.202,338505,0.044864137
26072,902645,DUNWOODY PL @ N RIVER DR,0 DUNWOODY PL & NORTH RIVER DR,33.993336,-84.347317,,,,,,0,FALSE,POINT (2241829.548340114 1452685.042968708),252,70890,bus,2241829.548,1452685.043,70890,0.006456878
26080,902692,ROSWELL RD@HUNTINGTON PLACE DR,0 ROSWELL RD & HUNTINGTON PL DR,33.992441,-84.351526,,,,,,0,FALSE,POINT (2240553.242336262 1452361.643831405),252,70843,bus,2240553.242,1452361.644,70843,0.005714179
26084,902694,ATLANTA ST @ SLOAN ST,0 ATLANTA ST & SLOAN ST,34.015363,-84.362834,,,,,,0,FALSE,POINT (2237141.800657692 1460708.930224016),252,70303,bus,2237141.801,1460708.93,70303,0.005190419
26086,902695,DUNWOODY PL @ ROSWELL RD,0 DUNWOODY PL & ROSWELL RD,33.995815,-84.34964,,,,,,0,FALSE,POINT (2241127.073922813 1453588.355218637),252,338505,bus,2241127.074,1453588.355,338505,0.030128509
27002,902744,DUNWOODY PL @ ROBERTS DR,0 DUNWOODY & ROBERTS,33.989414,-84.341888,,,,,,0,FALSE,POINT (2243472.600151557 1451255.042231155),252,70894,bus,2243472.6,1451255.042,70894,0.006939749
27004,902745,DUNWOODY PL @ ROBERTS DR,0 DUNWOODY PL & ROBERTS DR,33.990268,-84.343129,,,,,,0,FALSE,POINT (2243096.979533977 1451566.442423062),252,340886,bus,2243096.98,1451566.442,340886,0.02757537
27005,906297,DUNWOODY PL @ HIGHTOWER TRL,0 DUNWOODY PL & HIGHTOWER TRL,33.986143,-84.341525,,,,,,0,FALSE,POINT (2243580.597331471 1450064.598301788),252,70892,bus,2243580.597,1450064.598,70892,5.79E-05
27008,906298,DUNWOODY PL @ 8700,,33.991574,-84.345026,,,,,,0,FALSE,POINT (2242522.81852877 1452042.667127032),252,126480,bus,2242522.819,1452042.667,126480,0.006472671
27010,906282,DUNWOODY PL @ 8800,,33.991476,-84.34507,,,,,,0,FALSE,POINT (2242509.420084169 1452007.029939943),252,126480,bus,2242509.42,1452007.03,126480,0.004291067
27012,906283,DUNWOODY PL @ CEDAR RUN,0 DUNWOODY & CEDAR,33.992817,-84.346627,,,,,,0,FALSE,POINT (2242038.350875238 1452495.820388003),252,70888,bus,2242038.351,1452495.82,70888,0.016565062
27014,906284,DUNWOODY PL @ HOPE RD,0 DUNWOODY PL & HOPE RD,33.993077,-84.347099,,,,,,0,FALSE,POINT (2241895.456680897 1452590.681189888),252,70890,bus,2241895.457,1452590.681,70890,0.028035149
31002,906299,JETT FERRY RD@DUNWOODY CLUB DR,0 JETT FERRY RD & DUNWOODY CLUB DR,33.960004,-84.302486,,,,,,0,FALSE,POINT (2255401.437343661 1440535.198218832),271,90502,bus,2255401.437,1440535.198,90502,0.00508752
32002,906300,ROSWELL RD NE@TROWBRIDGE RD,,33.959381,-84.365227,,,,,,0,FALSE,POINT (2236377.222165137 1440339.510703055),251,60421,bus,2236377.222,1440339.511,60421,0.041120929
32004,906301,ROSWELL RD@7546,,33.963367,-84.364922,,,,,,0,FALSE,POINT (2236472.505995324 1441789.757519486),251,280466,bus,2236472.506,1441789.758,280466,0.024475268
32006,906302,ROSWELL RD@7741,,33.965836,-84.363037,,,,,,0,FALSE,POINT (2237045.757316046 1442687.078117265),251,13233,bus,2237045.757,1442687.078,13233,0.055175048
32012,906286,ROSWELL RD @ HAMPTON DE,ROSWELL RD & HAMPTON DR,33.973406,-84.357112,,,,,,0,FALSE,POINT (2238847.278173334 1445438.26504912),251,61348,bus,2238847.278,1445438.265,61348,0.011067977
32014,906287,ROSWELL RD@BRANTLEY RD,0 ROSWELL & BRANTLEY,33.974342,-84.355011,,,,,,0,FALSE,POINT (2239484.851004991 1445777.68079519),251,128408,bus,2239484.851,1445777.681,128408,0.013023223
32016,906288,ROSWELL RD@PITTS RD,0 ROSWELL RD & ISON RD,33.974982,-84.353657,,,,,,0,FALSE,POINT (2239895.755029607 1446009.813112299),251,61352,bus,2239895.755,1446009.813,61352,0.009888352
32017,906357,ROSWELL RD @ NORTHRIDGE CROSSING DR,0 ROSWELL & NORTHRIDGE CROSSING,33.977017,-84.351561,,,,,,0,FALSE,POINT (2240532.510036881 1446749.158082503),251,70798,bus,2240532.51,1446749.158,70798,0.019058867
32020,906358,ROSWELL RD@8215,,33.978828,-84.350815,,,,,,0,FALSE,POINT (2240759.844348679 1447407.739313364),251,243326,bus,2240759.844,1447407.739,243326,0.021669128
32022,906359,ROSWELL RD@NORTHRIDGE RD,0 ROSWELL & NORTHRIDGE,33.981735,-84.350197,,,,,,0,FALSE,POINT (2240949.081458787 1448465.205449547),251,243330,bus,2240949.081,1448465.205,243330,0.005749261
32025,906321,ROSWELL RD@NORTHRIDGE PKY,0 ROSWELL & NORTHRIDGE,33.985492,-84.350498,,,,,,0,FALSE,POINT (2240860.289812556 1449832.47063887),251,70813,bus,2240860.29,1449832.471,70813,0.095756919
32026,906352,ROSWELL RD@HIGHTOWER TRL,0 ROSWELL RD & HIGHTOWER TRL,33.988584,-84.351328,,,,,,0,FALSE,POINT (2240610.726556653 1450958.044219631),252,70834,bus,2240610.727,1450958.044,70834,0.006063505
32028,906353,ROSWELL RD @ TROWBRIDGE RD,0 ROSWELL RD NE & TROWBRIDGE RD,33.959077,-84.365335,,,,,,0,FALSE,POINT (2236344.260830842 1440228.954629753),251,60420,bus,2236344.261,1440228.955,60420,0.059638702
32032,906354,ROSWELL RD@7730,,33.965988,-84.363388,,,,,,0,FALSE,POINT (2236939.443469569 1442742.591876494),251,13233,bus,2236939.443,1442742.592,13233,0.054883908
32034,906355,ROSWELL RD@MORGAN FALLS RD,0 ROSWELL & MORGAN FALLS,33.968826,-84.361366,,,,,,0,FALSE,POINT (2237554.45471197 1443774.114313676),251,60467,bus,2237554.455,1443774.114,60467,0.018647096
32036,906322,ROSWELL RD@7840,,33.970417,-84.359618,,,,,,0,FALSE,POINT (2238085.502896364 1444352.046400117),251,128625,bus,2238085.503,1444352.046,128625,0.038373702
32038,906323,ROSWELL RD@7878,,33.971504,-84.358749,,,,,,0,FALSE,POINT (2238349.702440368 1444747.089889488),251,297535,bus,2238349.702,1444747.09,297535,0.011113084
32040,906324,ROSWELL RD@GROGANS FERRY RD,0 ROSWELL & GROGANS FERRY,33.973217,-84.357605,,,,,,0,FALSE,POINT (2238697.690335667 1445369.769575655),251,61348,bus,2238697.69,1445369.77,61348,0.040074827
32042,906325,ROSWELL RD@BRANTLEY RD,0 ROSWELL & BRANTLEY,33.974358,-84.355637,,,,,,0,FALSE,POINT (2239295.083269296 1445783.852085191),251,61350,bus,2239295.083,1445783.852,61350,0.008727402
32044,906356,ROSWELL RD@ISON RD,0 ROSWELL RD & ISON RD,33.97491,-84.35406,,,,,,0,FALSE,POINT (2239773.534386117 1445983.836759727),251,61351,bus,2239773.534,1445983.837,61351,0.00737985
32045,903061,ROSWELL RD@NORTHRIDGE CROSSING DR,0 ROSWELL & NORTHRIDGE CROSSING,33.976992,-84.351929,,,,,,0,FALSE,POINT (2240420.934040524 1446740.262454888),251,70798,bus,2240420.934,1446740.262,70798,0.014795575
32046,903065,ROSWELL RD@8215,,33.97891,-84.351072,,,,,,0,FALSE,POINT (2240681.989874467 1447437.717590998),251,243326,bus,2240681.99,1447437.718,243326,0.025147091
32050,903067,ROSWELL RD@NORTHRIDGE PKY,0 ROSWELL & NORTHRIDGE,33.984066,-84.350677,,,,,,0,FALSE,POINT (2240805.099657752 1449313.673296196),251,70813,bus,2240805.1,1449313.673,70813,0.014086989
32051,903068,ROSWELL RD@8450,,33.985727,-84.350793,,,,,,0,FALSE,POINT (2240771.022763699 1449918.143253888),251,70813,bus,2240771.023,1449918.143,70813,0.113749613
32053,903145,ROSWELL RD@HIGHTOWER TRL,0 ROSWELL & HIGHTOWER,33.987788,-84.351409,,,,,,0,FALSE,POINT (2240585.652561911 1450668.438803065),252,70836,bus,2240585.653,1450668.439,70836,0.026423327
32070,903149,ROSWELL RD@MORGAN FALLS RD,0 ROSWELL & MORGAN FALLS,33.96814,-84.36117,,,,,,0,FALSE,POINT (2237613.404538445 1443524.379591715),251,280908,bus,2237613.405,1443524.38,280908,0.018754545
32072,903150,ROSWELL RD@7840,,33.970314,-84.359644,,,,,,0,FALSE,POINT (2238077.549824908 1444314.581542808),251,128625,bus,2238077.55,1444314.582,128625,0.031858805
32080,902656,ROSWELL RD@7525,,33.960849,-84.365506,,,,,,0,FALSE,POINT (2236293.661126383 1440873.850334611),251,296792,bus,2236293.661,1440873.85,296792,0.014308465
32082,902713,ROSWELL RD @ NORTHRIDGE RD,0 ROSWELL & NORTHRIDGE,33.981056,-84.350434,,,,,,0,FALSE,POINT (2240876.795725915 1448218.258907584),251,70810,bus,2240876.796,1448218.259,70810,0.0266786
33016,902658,DUNWOODY PL @ NORTHRIDGE PKY,0 DUNWOODY PL & NORTHRIDGE PKY,33.984747,-84.341274,,,,,,0,FALSE,POINT (2243655.814742797 1449556.490380254),251,340885,bus,2243655.815,1449556.49,340885,0.036170566
33017,902659,DUNWOODY PL @ HIGHTOWER TRL,0 DUNWOODY PL & HIGHTOWER TRL,33.986179,-84.341481,,,,,,0,FALSE,POINT (2243593.956888125 1450077.675278235),252,70892,bus,2243593.957,1450077.675,70892,0.003548957
33018,902660,DUNWOODY PL @ NORTHRIDGE RD,0 DUNWOODY PL & NORTHRIDGE RD,33.982438,-84.342942,,,,,,0,FALSE,POINT (2243148.759913973 1448717.154206354),251,70862,bus,2243148.76,1448717.154,70862,0.0138426
35010,902782,ROSWELL RD@7865,,33.97147,-84.358452,,,,,,0,FALSE,POINT (2238439.720963008 1444734.549405926),251,297535,bus,2238439.721,1444734.549,297535,0.006671746
35016,902783,ROSWELL RD NE @ ALDERWOOD PL,,33.939001,-84.376462,,,,,,0,FALSE,POINT (2232955.451969825 1432930.430147971),251,302605,bus,2232955.452,1432930.43,302605,0.002955694
35018,902849,ROSWELL RD NE@6851,,33.942314,-84.372871,,,,,,0,FALSE,POINT (2234046.974394694 1434133.753354547),251,267466,bus,2234046.974,1434133.753,267466,0.022146758
35020,902850,ROSWELL RD@7640,,33.962807,-84.365623,,,,,,0,FALSE,POINT (2236259.567841456 1441586.39624783),251,210690,bus,2236259.568,1441586.396,210690,0.013736054
35022,902851,ROSWELL RD NE@SPALDING DR NE,0 ROSWELL & SPALDING,33.945827,-84.370956,,,,,,0,FALSE,POINT (2234630.289566475 1435410.898761156),251,252814,bus,2234630.29,1435410.899,252814,0.014412177
35024,902784,ROSWELL RD NE@7070,,33.948154,-84.370522,,,,,,0,FALSE,POINT (2234763.587535465 1436257.383896623),251,60283,bus,2234763.588,1436257.384,60283,0.030445746
35027,902785,ROSWELL RD NE@7140,,33.949751,-84.369406,,,,,,0,FALSE,POINT (2235103.166773785 1436837.828561672),251,11007,bus,2235103.167,1436837.829,11007,0.010661199
35031,902786,ROSWELL RD NE@7155,,33.950971,-84.368442,,,,,,0,FALSE,POINT (2235396.37078966 1437281.185103895),251,60328,bus,2235396.371,1437281.185,60328,0.012190641
35033,902812,ROSWELL RD NE@7155,,33.950723,-84.36817,,,,,,0,FALSE,POINT (2235478.675774051 1437190.780894081),251,60328,bus,2235478.676,1437190.781,60328,0.013180489
35034,902852,ROSWELL RD NE @ DALRYMPLE RD NE,,33.955399,-84.364582,,,,,,0,FALSE,POINT (2236569.999202323 1438890.163475272),251,60419,bus,2236569.999,1438890.163,60419,0.004607581
35038,902853,ROSWELL RD NE @ DALRYMPLE RD NE,0 ROSWELL RD NE & DALRYMPLE RD NE,33.956008,-84.364386,,,,,,0,FALSE,POINT (2236629.858980851 1439111.65158109),251,241958,bus,2236629.859,1439111.652,241958,0.006807222
35040,902854,ROSWELL RD NE@7447,,33.956905,-84.364632,,,,,,0,FALSE,POINT (2236555.895409421 1439438.195553113),251,326698,bus,2236555.895,1439438.196,326698,0.04625326
35046,902814,ROSWELL RD NE@6940,6940 ROSWELL RD NE & THE LODGE AT SANDY SPGS,33.944667,-84.371747,,,,,,0,FALSE,POINT (2234389.565857439 1434989.277524401),251,263281,bus,2234389.566,1434989.278,263281,0.009588073
35047,902815,ROSWELL RD NE@6900,,33.943185,-84.372831,,,,,,0,FALSE,POINT (2234059.742138288 1434450.667565101),251,252812,bus,2234059.742,1434450.668,252812,0.026291768
35048,902958,ROSWELL RD NE@SPALDING DR NE,0 ROSWELL & SPALDING,33.946217,-84.371246,,,,,,0,FALSE,POINT (2234542.626610249 1435552.986857722),251,60280,bus,2234542.627,1435552.987,60280,0.01093405
35060,902995,ROSWELL RD NE @ 6500,,33.933925,-84.38,,,,,,0,FALSE,POINT (2231878.586631449 1431085.594159984),251,297016,bus,2231878.587,1431085.594,297016,0.05577256
35066,902961,ROSWELL RD NE @ ABERNATHY RD,0 ROSWELL RD NE & ABERNATHY RD NW,33.936055,-84.379108,,,,,,0,FALSE,POINT (2232150.738120884 1431860.094348254),251,302609,bus,2232150.738,1431860.094,302609,0.012814363
35129,903107,ROSWELL RD NE@7256,,33.953271,-84.366776,,,,,,0,FALSE,POINT (2235903.206956729 1438117.118371245),251,326693,bus,2235903.207,1438117.118,326693,0.015063569
35132,903109,ROSWELL RD NE@7256,,33.95277,-84.366646,,,,,,0,FALSE,POINT (2235942.272169607 1437934.737856579),251,296375,bus,2235942.272,1437934.738,296375,0.013511572
35134,903194,ROSWELL RD NE@7070,,33.948387,-84.371056,,,,,,0,FALSE,POINT (2234601.819062813 1436342.489947386),251,60283,bus,2234601.819,1436342.49,60283,0.047152757
35135,903195,ROSWELL RD NE@7100,,33.949764,-84.369957,,,,,,0,FALSE,POINT (2234936.086589808 1436842.889631351),251,11007,bus,2234936.087,1436842.89,11007,0.022158547
35144,903111,ROSWELL RD NE @ ALDERWOOD PL,,33.938651,-84.377007,,,,,,0,FALSE,POINT (2232789.90005889 1432803.410923447),251,302684,bus,2232789.9,1432803.411,302684,0.012688568
35146,903112,ROSWELL RD NE @ ABERNATHY RD NW,,33.936011,-84.378901,,,,,,0,FALSE,POINT (2232213.487381551 1431843.953795297),251,302609,bus,2232213.487,1431843.954,302609,0.008448483
35900,902725,NORTH SPRINGS STATION,7020 PEACHTREE DUNWOODY  RD  NE,33.945416,-84.357235,,,,,,0,FALSE,POINT (2238791.065770977 1435253.337939388),251,993035,bus,2238791.066,1435253.338,281096,0.319621694
36002,902726,ASHFORD DUNWOODY RD@ASHFORD PKY,0 ASHFORD DUNWOODY RD NE & ASHFORD PKY,33.933964,-84.33758,,,,,,0,FALSE,POINT (2244744.760972299 1431075.70155465),251,60979,bus,2244744.761,1431075.702,60979,0.026406608
36003,902727,ASHFORD DUNWOODY RD@ASHFORD CENTER,0 ASHFORD DUNWOODY RD NE & ASHFORD CENTER PKY,33.938814,-84.337963,,,,,,0,FALSE,POINT (2244631.54126908 1432840.705064113),251,61209,bus,2244631.541,1432840.705,61209,0.00693383
36004,902728,ASHFORD DUNWOODY RD@VALLEY VIEW RD,0 ASHFORD DUNWOODY RD NE & VALLEY VIEW RD,33.936201,-84.337755,,,,,,0,FALSE,POINT (2244693.039755194 1431889.785612272),251,61478,bus,2244693.04,1431889.786,61478,0.00609746
36005,902668,ASHFORD DUNWOODY RD @ ASHFORD CENTER PKY,0 ASHFORD DUNWOODY RD NE & ASHFORD CENTER PKY,33.938949,-84.338213,,,,,,0,FALSE,POINT (2244555.801780953 1432889.955308776),251,61208,bus,2244555.802,1432889.955,61208,0.01588263
36006,902669,ASHFORD DUNWOODY RD@ASHFORD CTR N,0 ASHFORD DUNWOODY RD NE & ASHFORD CTR N,33.941293,-84.338235,,,,,,0,FALSE,POINT (2244550.555484891 1433742.897766687),251,61219,bus,2244550.555,1433742.898,61219,0.02433243
36038,902864,CHAMBLEE DUNWOODY RD @ MT VERNON RD,0 CHAMBLEE DUNWOODY RD & MT VERNON RD,33.94609,-84.334411,,,,,,0,FALSE,POINT (2245713.142598111 1435486.506637611),251,61533,bus,2245713.143,1435486.507,61533,0.004997474
36040,902865,CHAMBLEE DUNWOODY RD @ NANDINA LN,0 CHAMBLEE DUNWOODY RD & NANDINA LN,33.947692,-84.335512,,,,,,0,FALSE,POINT (2245380.211977654 1436069.988329174),251,208620,bus,2245380.212,1436069.988,208620,0.004245439
36050,902866,CHAMBLEE DUNWOODY RD @ DUNWOODY VILLAGE PKWY,0 CHAMBLEE DUNWOODY RD & DUNWOODY VILLAGE PKY,33.949857,-84.33646,,,,,,0,FALSE,POINT (2245094.030081279 1436858.260887153),251,61536,bus,2245094.03,1436858.261,61536,0.012929321
36088,903004,ASHFORD DUNWOODY RD @ ASHFORD CTR N,0 ASHFORD DUNWOODY RD NE & ASHFORD CTR N,33.941633,-84.338323,,,,,,0,FALSE,POINT (2244524.074009465 1433866.661130877),251,61219,bus,2244524.074,1433866.661,61219,0.002256433
36090,903005,ASHFORD DUNWOODY RD@ASHFORD GABLES,0 ASHFORD DUNWOODY RD NE & ASHFORD GABLES DR,33.936667,-84.338028,,,,,,0,FALSE,POINT (2244610.523161444 1432059.491050358),251,61207,bus,2244610.523,1432059.491,61207,0.028034802
36092,903006,ASHFORD DUNWOODY RD@ASHWOOD PKWY,0 ASHFORD DUNWOODY RD NE & ASHWOOD PKY,33.933678,-84.337809,,,,,,0,FALSE,POINT (2244675.130915948 1430971.748137249),251,60979,bus,2244675.131,1430971.748,60979,0.005089403
36096,902973,ASHFORD DUNWOODY RD@MEADOW LANE RD,0 ASHFORD DUNWOODY RD NE & MEADOW LN,33.931611,-84.33758,,,,,,0,FALSE,POINT (2244743.335240457 1430219.496375768),251,60977,bus,2244743.335,1430219.496,60977,0.00362172
36098,902974,ASHFORD DUNWOODY RD@MT VERNON RD,0 ASHFORD DUNWOODY RD NE & MT VERNON RD,33.94277,-84.337898,,,,,,0,FALSE,POINT (2244653.656870627 1434280.175826732),251,244657,bus,2244653.657,1434280.176,244657,0.002756257
36112,902970,DUNWOODY VILLAGE PKY @ MT VERNON RD,0 DUNWOODY VILLAGE & MT VERNON,33.947607,-84.331618,,,,,,0,FALSE,POINT (2246561.036847622 1436037.137706421),251,287117,bus,2246561.037,1436037.138,61550,0.047338996
36114,902971,DUNWOODY VILLAGE PKY @ 1424,1424 DUNWOODY VILLAGE & CHAMBLEE DUNWOODY,33.949367,-84.33265,,,,,,0,FALSE,POINT (2246249.113568216 1436678.069463186),251,279250,bus,2246249.114,1436678.069,244648,0.178126638
37002,903121,N PEACHTREE RD @ KINGS POINT DR,0 PEACHTREE & KINGS POINT,33.930561,-84.294632,,,,,,0,FALSE,POINT (2257769.495419246 1429818.45910577),271,90119,bus,2257769.495,1429818.459,90119,0.024347078
37003,903122,MT VERNON RD@TILLY MILL RD,0 MT VERNON RD & TILLY MILL RD,33.955369,-84.305518,,,,,,0,FALSE,POINT (2254479.818287828 1438849.84831452),271,90479,bus,2254479.818,1438849.848,90479,0.009186747
37004,903123,N PEACHTREE RD@KINGS POINT DR,0 N PEACHTREE RD & KINGS POINT DR,33.930972,-84.294791,,,,,,0,FALSE,POINT (2257721.454939815 1429968.073007243),271,90119,bus,2257721.455,1429968.073,90119,0.005685191
37005,903124,MT VERNON RD@MEADOW LAKE DR,0 MT VERNON & MEADOW LAKE,33.95243,-84.31196,,,,,,0,FALSE,POINT (2252524.911786995 1437783.112830096),271,90315,bus,2252524.912,1437783.113,90315,0.008302894
37006,903204,N PEACHTREE RD@BROOK RUN AVE,0 PEACHTREE & BROOK RUN,33.934723,-84.294998,,,,,,0,FALSE,POINT (2257660.37549598 1431333.057217073),271,90540,bus,2257660.375,1431333.057,90540,0.019286902
37007,903205,MT VERNON RD@MEADOW LAKE DR,0 MT VERNON & MEADOW LAKE,33.95264,-84.31175,,,,,,0,FALSE,POINT (2252588.69983159 1437859.437317416),271,90315,bus,2252588.7,1437859.437,90315,0.010625661
37008,903206,TILLY MILL RD @ N PEACHTREE RD,0 TILLY MILL & PEACHTREE,33.938637,-84.297134,,,,,,0,FALSE,POINT (2257014.335737653 1432758.092806107),271,90354,bus,2257014.336,1432758.093,90354,0.103343935
37009,903207,MT VERNON RD@MANHASSET DR,0 MT VERNON RD & MANHASSET DR,33.950466,-84.319437,,,,,,0,FALSE,POINT (2250256.537038772 1437071.748091494),271,61661,bus,2250256.537,1437071.748,61661,0.003362711
37010,903125,TILLY MILL RD@CHERRING DR,0 TILLY MILL RD & CHERRING DR,33.938991,-84.297033,,,,,,0,FALSE,POINT (2257045.131341894 1432886.866762476),271,90354,bus,2257045.131,1432886.867,90354,0.085490802
37011,903126,MT VERNON RD@VERMACK RD,0 MT VERNON & VERMACK,33.95026,-84.31968,,,,,,0,FALSE,POINT (2250182.736708667 1436996.898829381),271,61661,bus,2250182.737,1436996.899,61661,0.016683221
37012,903127,TILLY MILL RD@DARTFORD DR,0 TILLY MILL & DARTFORD,33.944782,-84.301552,,,,,,0,FALSE,POINT (2255677.353686785 1434995.857870061),271,90376,bus,2255677.354,1434995.858,90376,0.009942359
37013,903128,MT VERNON RD@VERNON RIDGE DR,0 MT VERNON & VERNON RIDGE,33.94779,-84.32686,,,,,,0,FALSE,POINT (2248004.028965165 1436101.441263369),251,61616,bus,2248004.029,1436101.441,61616,0.027986937
37014,903208,TILLY MILL RD @ TILLINGHAM CT,0 TILLY MILL & TILLINGHAM,33.942707,-84.299725,,,,,,0,FALSE,POINT (2256230.439841857 1434240.086537415),271,90350,bus,2256230.44,1434240.087,90350,0.014114529
37016,902683,TILLY MILL RD@STEPHENS WALK,0 TILLY MILL RD & STEPHENS WALK,33.946366,-84.302981,,,,,,0,FALSE,POINT (2255244.753657865 1435572.814337638),271,125818,bus,2255244.754,1435572.814,125818,0.00653552
37017,902684,MT VERNON RD@DUNWOODY VILLAGE PKWY,0 MT VERNON RD & DUNWOODY VILLAGE PKY,33.946958,-84.33149,,,,,,0,FALSE,POINT (2246599.474138462 1435800.917906767),251,61550,bus,2246599.474,1435800.918,61550,0.003544916
37018,902685,TILLY MILL RD@DARTFORD DR,0 TILLY MILL & DARTFORD,33.944939,-84.302193,,,,,,0,FALSE,POINT (2255483.036242692 1435053.242958781),271,90376,bus,2255483.036,1435053.243,90376,0.029478638
37019,902686,MT VERNON RD@STRATHAM DR,0 MT VERNON & STRATHAM,33.95162,-84.3147,,,,,,0,FALSE,POINT (2251693.614393616 1437489.558615724),271,90302,bus,2251693.614,1437489.559,90302,0.014068269
37020,902736,TILLY MILL RD@DARTFORD DR,0 TILLY MILL & DARTFORD,33.946084,-84.303016,,,,,,0,FALSE,POINT (2255234.003215225 1435470.214654298),271,125818,bus,2255234.003,1435470.215,125818,0.013510845
37021,902737,MT VERNON RD@STRATHAM DR,0 MT VERNON RD & STRATHAM DR,33.951781,-84.31463,,,,,,0,FALSE,POINT (2251714.925749905 1437548.112523482),271,90302,bus,2251714.926,1437548.113,90302,0.00610414
37022,902738,TILLY MILL RD@SANDELL DR,0 TILLY MILL & SANDELL,33.952557,-84.305428,,,,,,0,FALSE,POINT (2254505.724679087 1437826.583223911),271,90369,bus,2254505.725,1437826.583,90369,0.030039222
37023,902739,TILLY MILL RD@LAKESPRINGS WAY,0 TILLY MILL & LAKESPRINGS,33.948708,-84.304795,,,,,,0,FALSE,POINT (2254695.788316078 1436425.754116839),271,90362,bus,2254695.788,1436425.754,90362,0.006803904
37024,902687,TILLY MILL RD@SANDELL DR,0 TILLY MILL & SANDELL,33.952854,-84.305862,,,,,,0,FALSE,POINT (2254374.266242403 1437934.833598922),271,90369,bus,2254374.266,1437934.834,90369,0.020751384
37026,902688,MT VERNON RD@CEDAR CHASE,0 MT VERNON RD & CEDAR CHAS,33.956406,-84.30397,,,,,,0,FALSE,POINT (2254949.719569528 1439226.55927023),271,90487,bus,2254949.72,1439226.559,90487,0.00485608
37028,902689,JETT FERRY RD@MT VERNON RD,0 JETT FERRY RD & MT VERNON RD,33.958035,-84.302509,,,,,,0,FALSE,POINT (2255393.514595972 1439818.72885712),271,328454,bus,2255393.515,1439818.729,328454,0.013686792
37030,902690,MT VERNON RD @ JETT FERRY RD,0 MT VERNON RD & JETT FERRY RD,33.957865,-84.301975,,,,,,0,FALSE,POINT (2255555.351433526 1439756.655350017),271,244680,bus,2255555.351,1439756.655,244680,0.015640095
37032,902740,TILLY MILL RD@HOLLAND CT,0 TILLY MILL & HOLLAND,33.949333,-84.30481,,,,,,0,FALSE,POINT (2254691.545768622 1436653.184523284),271,90363,bus,2254691.546,1436653.185,90363,0.018246097
37034,902741,PEELER RD@GLENBONNIE DR,0 PEELER RD & GLENBONNIE DR,33.936992,-84.286464,,,,,,0,FALSE,POINT (2260249.707172911 1432155.567534456),271,90618,bus,2260249.707,1432155.568,90618,0.029637607
37036,902742,PEELER RD@EDISON RD,0 PEELER RD & EIDSON RD,33.937242,-84.285592,,,,,,0,FALSE,POINT (2260514.283742522 1432246.229454829),271,90619,bus,2260514.284,1432246.229,90619,0.003856154
37038,902743,PEELER RD@HAPPY HOLLOW RD,0 PEELER RD & HAPPY HOLLOW RD,33.939219,-84.282889,,,,,,0,FALSE,POINT (2261334.895945686 1432964.677265256),271,90627,bus,2261334.896,1432964.677,90627,0.002567702
37040,902873,PEELER RD@WINDWOOD DR,0 PEELER RD & WINDWOOD DR,33.939845,-84.280153,,,,,,0,FALSE,POINT (2262164.934770671 1433191.536305099),271,90643,bus,2262164.935,1433191.536,90643,0.002659645
37042,902874,PEELER RD@LAKESIDE DR,0 PEELER & LAKESIDE,33.939846,-84.278465,,,,,,0,FALSE,POINT (2262676.875968386 1433191.338250706),271,90647,bus,2262676.876,1433191.338,90647,0.023560192
37044,902875,PEELER RD@FOUR OAKS CT,0 PEELER RD & FOUR OAKS CT,33.940362,-84.275369,,,,,,0,FALSE,POINT (2263616.037329582 1433378.0906196),271,91268,bus,2263616.037,1433378.091,91268,0.003156085
37046,902876,PEELER RD@TWIN LAKES TRL,0 PEELER & TWIN LAKES,33.94036,-84.27384,,,,,,0,FALSE,POINT (2264079.752628032 1433376.875116443),271,91275,bus,2264079.753,1433376.875,91275,0.03601075
37048,902805,WINTERS CHAPEL RD @ PEELER RD,0 WINTERS CHAPEL RD NW & PEELER RD,33.941174,-84.270802,,,,,,0,FALSE,POINT (2265001.419702519 1433672.123351426),271,246041,bus,2265001.42,1433672.123,246041,0.020662337
37050,902806,WINTERS CHAPEL RD@4920,4920 WINTERS CHAPEL RD NW,33.939106,-84.269213,,,,,,0,FALSE,POINT (2265482.576039128 1432919.138042347),271,207129,bus,2265482.576,1432919.138,207129,0.018686546
37052,902807,WINTERS CHAPEL RD @ WOMACK DR,0 WINTERS CHAPEL RD NW & WOMACK DR NW,33.935409,-84.26684,,,,,,0,FALSE,POINT (2266200.958367608 1431573.17037126),271,91279,bus,2266200.958,1431573.17,91279,0.003820019
37054,902833,WINTERS CHAPEL RD@4739,4739 WINTERS CHAPEL RD NW,33.933932,-84.266111,,,,,,0,FALSE,POINT (2266421.541976451 1431035.507827881),271,91052,bus,2266421.542,1431035.508,91052,0.028764091
37060,902877,PEELER RD@VILLAGE MILL RD,0 PEELER RD & VILLAGE MILL RD,33.931727,-84.309544,,,,,,0,FALSE,POINT (2253247.045560016 1430248.707920636),271,89845,bus,2253247.046,1430248.708,89845,0.005064799
37062,902878,PEELER RD@ADAMS RD,0 PEELER & ADAMS,33.934982,-84.306114,,,,,,0,FALSE,POINT (2254289.012763031 1431431.699807593),271,90325,bus,2254289.013,1431431.7,90325,0.027102562
37064,902879,PEELER RD@EQUESTRIAN WAY,0 PEELER RD & EQUESTRIAN WAY,33.934769,-84.306602,,,,,,0,FALSE,POINT (2254140.89677283 1431354.395239477),271,90325,bus,2254140.897,1431354.395,90325,0.00495352
37068,902880,PEELER RD@CHERRING DR,0 PEELER & CHERRING,33.936012,-84.298553,,,,,,0,FALSE,POINT (2256582.744234101 1431803.4628326),271,90343,bus,2256582.744,1431803.463,90343,0.017751112
37072,902835,TILLY MILL RD @ N PEACHTREE RD,0 TILLY MILL & PEACHTREE,33.937144,-84.294379,,,,,,0,FALSE,POINT (2257849.214855326 1432213.771718027),271,246256,bus,2257849.215,1432213.772,246256,0.026132995
37074,902836,TILLY MILL RD @ WOMACK RD,0 TILLY MILL RD & WOMACK RD,33.943484,-84.299985,,,,,,0,FALSE,POINT (2256151.956355403 1434522.922456285),271,90351,bus,2256151.956,1434522.922,90351,0.00908029
37076,902837,TILLY MILL RD@MT VERNON RD,0 TILLY MILL & MT VERNON,33.954907,-84.3054,,,,,,0,FALSE,POINT (2254515.371774916 1438681.687704279),271,244667,bus,2254515.372,1438681.688,244667,0.018107601
37078,902934,DUNWOODY CLUB DR@SAFFRON DR,0 DUNWOODY CLUB & SAFFRON,33.959162,-84.300133,,,,,,0,FALSE,POINT (2256114.494287823 1440227.875152213),271,90506,bus,2256114.494,1440227.875,90506,0.021839172
37080,902935,TILLY MILL RD@HOLLAND CT,0 TILLY MILL & HOLLAND,33.949399,-84.305084,,,,,,0,FALSE,POINT (2254608.487962835 1436677.312519173),271,90363,bus,2254608.488,1436677.313,90363,0.012050032
37082,902936,TILLY MILL RD @ N PEACHTREE RD,0 TILLY MILL & PEACHTREE,33.936698,-84.294397,,,,,,0,FALSE,POINT (2257843.553614413 1432051.488889716),271,246256,bus,2257843.554,1432051.489,246256,0.017318323
37084,903016,N PEACHTREE RD@BARCLAY DR,0 PEACHTREE & BARCLAY,33.933403,-84.295131,,,,,,0,FALSE,POINT (2257619.435316222 1430852.788838079),271,90121,bus,2257619.435,1430852.789,90121,0.019284006
37086,903017,N PEACHTREE RD @ PEACHFORD RD,0 PEACHTREE & PEACHFORD,33.929211,-84.29563,,,,,,0,FALSE,POINT (2257466.169430227 1429327.60310357),271,90108,bus,2257466.169,1429327.603,90108,0.01949184
37088,903018,N PEACHTREE RD@BROOKHURST DR,0 PEACHTREE & BROOKHURST,33.926697,-84.295604,,,,,,0,FALSE,POINT (2257472.906734591 1428412.805028255),271,90105,bus,2257472.907,1428412.805,90105,0.021784655
37092,902937,PEELER RD@CHERRING DR,0 PEELER RD & CHERRING DR,33.935796,-84.298756,,,,,,0,FALSE,POINT (2256521.073960904 1431724.94435602),271,90343,bus,2256521.074,1431724.944,90343,0.002825249
37100,903020,PEELER RD@OLDE VILLAGE LN,0 PEELER RD & OLDE VILLAGE LN,33.934277,-84.307964,,,,,,0,FALSE,POINT (2253727.554906587 1431175.933225828),271,89847,bus,2253727.555,1431175.933,89847,0.002998071
37102,903021,PEELER RD@INDEPENDENCE SQ,0 PEELER RD & INDEPENDENCE SQ,33.930071,-84.311822,,,,,,0,FALSE,POINT (2252555.250075672 1429647.095700334),271,89827,bus,2252555.25,1429647.096,89827,0.005024363
37108,903024,PEELER RD@CHERRING LN,0 PEELER & CHERRING,33.936014,-84.295613,,,,,,0,FALSE,POINT (2257474.435775387 1431803.057494443),271,90539,bus,2257474.436,1431803.057,90539,0.018420309
37110,903144,PEELER RD@CHERRING LN,0 PEELER RD & CHERRING LN,33.93584,-84.29589,,,,,,0,FALSE,POINT (2257390.34303102 1431739.848385424),271,90539,bus,2257390.343,1431739.848,90539,0.002322684
38002,903137,RIVEREDGE PKY NW @ 1600,,33.90785,-84.438083,,,,,,0,FALSE,POINT (2214236.682451384 1421639.06842538),230,56465,bus,2214236.682,1421639.068,340444,0.242389463
38008,903140,NORTHSIDE DR@INTERSTATE NORTH PKY,0 NORTHSIDE & INTERSTATE NORTH,33.908414,-84.43304,,,,,,0,FALSE,POINT (2215767.245372204 1421840.289567049),230,56469,bus,2215767.245,1421840.29,56469,0.013177211
38012,903182,INTERSTATE NORTH PKY @ 5665,5665 INTERSTATE NORTH PKY NW & LAKEMOORE DR NE,33.909359,-84.431746,,,,,,0,FALSE,POINT (2216160.725880323 1422183.138105017),230,340459,bus,2216160.726,1422183.138,340459,0.00767147
39002,903221,HAMMOND DR@KAYRON DR,0 HAMMOND & KAYRON,33.91894,-84.37139,,,,,,0,FALSE,POINT (2234479.159976189 1425627.563956106),251,59941,bus,2234479.16,1425627.564,59941,0.018495563
39004,903222,HAMMOND DR@KAYRON DR,0 HAMMOND DR NE & KAYRON DR NE,33.919091,-84.371623,,,,,,0,FALSE,POINT (2234408.58745414 1425682.650478595),251,59941,bus,2234408.587,1425682.65,59941,0.003575488
39018,903184,JOHNSON FERRY RD NE@GLENRIDGE DR NE,0 JOHNSON FERRY RD NE & GLENRIDGE DR NE,33.92218,-84.367583,,,,,,0,FALSE,POINT (2235636.347424191 1426804.246166213),251,59984,bus,2235636.347,1426804.246,59984,0.009102889
39024,902746,JOHNSON FERRY RD NE @ GLENRIDGE DR NE,0 JOHNSON FERRY RD NE & GLENRIDGE DR NE,33.922431,-84.367997,,,,,,0,FALSE,POINT (2235510.941459516 1426895.825491857),251,300681,bus,2235510.941,1426895.825,300681,0.006978927
39040,902747,ROSWELL RD NE@GLENRIDGE DR NE,0 ROSWELL RD NE & GLENRIDGE DR NE,33.901628,-84.37916,,,,,,0,FALSE,POINT (2232109.041187144 1419332.912329626),250,59579,bus,2232109.041,1419332.912,59579,0.009796427
39042,902696,ROSWELL RD NE @ GLENRIDGE DR NE,0 ROSWELL RD NE & GLENRIDGE DR NE,33.902783,-84.378606,,,,,,0,FALSE,POINT (2232278.002161512 1419752.842566766),250,300642,bus,2232278.002,1419752.843,300642,0.00774417
39044,902697,ROSWELL RD NE @ 5491,0 ROSWELL RD NE & LAKE PLACID DR NE,33.905396,-84.378695,,,,,,0,FALSE,POINT (2232252.960958347 1420703.708215314),250,272413,bus,2232252.961,1420703.708,272413,0.022275964
39046,902698,ROSWELL RD NE @ 5531,,33.907231,-84.378718,,,,,,0,FALSE,POINT (2232247.361175618 1421371.436679842),250,272405,bus,2232247.361,1421371.437,272405,0.029835769
39048,902699,ROSWELL RD NE@LAKE PLACID DR NE,0 ROSWELL RD NE & LAKE PLACID DR NE,33.909002,-84.378784,,,,,,0,FALSE,POINT (2232228.667798483 1422015.904157123),250,59621,bus,2232228.668,1422015.904,59621,0.004588794
39052,902749,ROSWELL RD NE @ ALLEN RD,0 ROSWELL & ALLEN,33.91372,-84.37955,,,,,,0,FALSE,POINT (2231999.828004671 1423733.157527623),250,301702,bus,2231999.828,1423733.158,301702,0.017827513
39058,902751,ROSWELL RD NE @ HAMMOND DR NE,0 ROSWELL RD NE & HAMMOND DR NE,33.918641,-84.379085,,,,,,0,FALSE,POINT (2232144.601909298 1425523.506369772),251,243157,bus,2232144.602,1425523.506,243157,0.006117542
39060,902700,ROSWELL RD NE @ HILDERBRAND DR,0 ROSWELL RD NE & HILDERBRAND DR NE,33.922703,-84.379218,,,,,,0,FALSE,POINT (2232107.31517014 1427001.661180368),251,59753,bus,2232107.315,1427001.661,59753,0.015310264
39062,902701,ROSWELL RD NE @ MT VERNON HWY NE,0 ROSWELL RD NE & MT VERNON HWY NE,33.924189,-84.379132,,,,,,0,FALSE,POINT (2232134.521768226 1427542.3297226),251,59771,bus,2232134.522,1427542.33,59771,0.004968575
39064,902702,ROSWELL RD NE @ SANDY SPRINGS CIR NE,0 ROSWELL & SANDY SPRINGS,33.927011,-84.379415,,,,,,0,FALSE,POINT (2232050.805016364 1428569.371265619),251,59773,bus,2232050.805,1428569.371,59773,0.02368365
39065,902703,HAMMOND DR NE @ ROSWELL RD,0 HAMMOND & ROSWELL,33.919215,-84.378795,,,,,,0,FALSE,POINT (2232233.007300803 1425732.19024647),251,59751,bus,2232233.007,1425732.19,59751,0.015681237
39067,906303,ROSWELL RD @ JOHNSON FERRY RD,0 ROSWELL RD NE & JOHNSON FERRY RD NE,33.925191,-84.379111,,,,,,0,FALSE,POINT (2232141.646382561 1427906.92225661),251,59772,bus,2232141.646,1427906.922,59772,0.005070888
39068,906304,ROSWELL RD NE @ CROMWELL RD NE,0 ROSWELL & CROMWELL,33.929142,-84.379456,,,,,,0,FALSE,POINT (2232039.975935323 1429344.821409571),251,59777,bus,2232039.976,1429344.821,59777,0.016097718
39070,906305,ROSWELL RD NE @ GLENRIDGE DR NE,0 ROSWELL & GLENRIDGE,33.902489,-84.378456,,,,,,0,FALSE,POINT (2232323.293747193 1419645.768960159),250,59789,bus,2232323.294,1419645.769,59789,0.010616907
39072,906306,ROSWELL RD NE @ 5555,,33.907636,-84.378673,,,,,,0,FALSE,POINT (2232261.318312604 1421518.778654305),250,272405,bus,2232261.318,1421518.779,272405,0.002305435
39074,906290,ROSWELL RD NE @ LAKE PLACID DR NE,0 ROSWELL RD NE & LAKE PLACID DR NE,33.909522,-84.378654,,,,,,0,FALSE,POINT (2232268.499364248 1422205.038786042),250,59621,bus,2232268.499,1422205.039,59621,0.04021328
39078,906292,ROSWELL RD NE @ ALLEN RD NE,0 ROSWELL & ALLEN,33.914017,-84.379242,,,,,,0,FALSE,POINT (2232093.491417699 1423841.03552652),250,301687,bus,2232093.491,1423841.036,301687,0.002117689
39080,906293,ROSWELL RD NE @ CARPENTER DR NE,,33.915285,-84.379235,,,,,,0,FALSE,POINT (2232096.570149473 1424302.427633743),250,59745,bus,2232096.57,1424302.428,59745,0.005335705
39082,906307,ROSWELL RD NE @ 5925,,33.917522,-84.379041,,,,,,0,FALSE,POINT (2232157.107487188 1425116.29975862),251,243154,bus,2232157.107,1425116.3,243154,0.017968925
39084,906308,ROSWELL RD NE@HAMMOND DR NE,0 ROSWELL & HAMMOND,33.918831,-84.378862,,,,,,0,FALSE,POINT (2232212.393667792 1425592.503236852),251,314575,bus,2232212.394,1425592.503,314575,0.012642803
39086,906309,ROSWELL RD NE @ SANDY SPRINGS PL NE,0 ROSWELL RD NE & SANDY SPRINGS PL NE,33.92001,-84.378944,,,,,,0,FALSE,POINT (2232188.405316583 1426021.56640162),251,59752,bus,2232188.405,1426021.566,59752,0.005293604
39090,906294,ROSWELL RD NE @ HILDERBRAND DR NE,0 ROSWELL & HILDERBRAND,33.922714,-84.379102,,,,,,0,FALSE,POINT (2232142.511333736 1427005.591006773),251,59753,bus,2232142.511,1427005.591,59753,0.015221186
39092,906326,ROSWELL RD NE@MT VERNON HWY NE,0 ROSWELL & MT VERNON,33.923721,-84.379011,,,,,,0,FALSE,POINT (2232170.873500343 1427371.958918686),251,243181,bus,2232170.874,1427371.959,243181,0.006042192
39095,906330,ROSWELL RD NE@JOHNSON FERRY RD NE,0 ROSWELL & JOHNSON FERRY,33.925374,-84.379009,,,,,,0,FALSE,POINT (2232172.724285904 1427973.447917463),251,59772,bus,2232172.724,1427973.448,59772,0.017682945
39096,906331,ROSWELL RD NE@SANDY SPRINGS CIR NE,0 ROSWELL & SANDY SPRINGS,33.92717,-84.37906,,,,,,0,FALSE,POINT (2232158.606352197 1428627.004904337),251,296283,bus,2232158.606,1428627.005,296283,0.011716575
39098,906332,ROSWELL RD NE@VERNON WOODS DR NE,0 ROSWELL RD NE & VERNON WOODS DR NE,33.929308,-84.37919,,,,,,0,FALSE,POINT (2232120.784375787 1429405.058045766),251,59778,bus,2232120.784,1429405.058,59778,0.010913745
39100,906360,ROSWELL RD NE @ 6509,,33.934417,-84.379717,,,,,,0,FALSE,POINT (2231964.793296258 1431264.44410268),251,297016,bus,2231964.793,1431264.444,297016,0.019096122
39102,906361,ROSWELL RD NE @ CLIFTWOOD DR NE,0 ROSWELL RD NE & CLIFTWOOD DR NE,33.916179,-84.379279,,,,,,0,FALSE,POINT (2232083.895421199 1424627.761693429),250,296095,bus,2232083.895,1424627.762,296095,0.00520682
39117,906362,MT VERNON HWY@BOYLSTON DR,0 MT VERNON HWY NE & BOYLSTON DR NE,33.924369,-84.377367,,,,,,0,FALSE,POINT (2232670.048701664 1427606.724329051),251,59945,bus,2232670.049,1427606.724,59945,0.005990763
39124,906363,JOHNSON FERRY RD@KAYRON DR,0 JOHNSON FERRY RD NE & KAYRON DR NE,33.923038,-84.370644,,,,,,0,FALSE,POINT (2234708.426876836 1427118.284239561),251,59943,bus,2234708.427,1427118.284,59943,0.003281116
39126,906333,JOHNSON FERRY RD@KAYRON DR,0 JOHNSON FERRY RD NE & KAYRON DR NE,33.923119,-84.370666,,,,,,0,FALSE,POINT (2234701.811906472 1427147.771600433),251,59943,bus,2234701.812,1427147.772,59943,0.005557392
39144,906334,ROSWELL RD NE @ SANDY SPRINGS PL,0 ROSWELL RD NE & SANDY SPRINGS PL NE,33.920108,-84.379042,,,,,,0,FALSE,POINT (2232158.750449463 1426057.28789285),251,59752,bus,2232158.75,1426057.288,59752,0.003562609
39150,906335,ROSWELL RD NE @ 5491,,33.905167,-84.378537,,,,,,0,FALSE,POINT (2232300.72708497 1420620.281505263),250,272413,bus,2232300.727,1420620.282,272413,0.00667098
39184,903096,MT VERNON HWY NW @ HAMMOND DR NW,0 MOUNT VERNON HWY NW & HAMMOND DR NW,33.919637,-84.390895,,,,,,0,FALSE,POINT (2228562.73250173 1425893.546430564),251,59675,bus,2228562.733,1425893.546,59675,0.009692751
39188,903157,JOHNSON FERRY RD@MT VERNON HWY,0 JOHNSON FERRY RD NE & MT VERNON HWY NE,33.924333,-84.376452,,,,,,0,FALSE,POINT (2232947.576096513 1427593.056317835),251,59947,bus,2232947.576,1427593.056,59947,0.016268275
39190,903158,JOHNSON FERRY RD NE @ ROSWELL RD,0 JOHNSON FERRY & ROSWELL,33.924741,-84.378245,,,,,,0,FALSE,POINT (2232403.997007039 1427742.634671825),251,243176,bus,2232403.997,1427742.635,243176,0.006032945
39192,902662,JOHNSON FERRY RD@HARLESTON RD,0 JOHNSON FERRY & HARLESTON,33.92371,-84.37488,,,,,,0,FALSE,POINT (2233423.963667979 1427365.389632226),251,59931,bus,2233423.964,1427365.39,59931,0.001453156
39194,902663,JOHNSON FERRY RD@HARLESTON RD,0 JOHNSON FERRY RD NE & HARLESTON RD NE,33.923672,-84.374948,,,,,,0,FALSE,POINT (2233403.308481561 1427351.604114236),251,59931,bus,2233403.308,1427351.604,59931,0.003346353
39196,902664,HAMMOND DR@BOYLSTON DR,0 HAMMOND & BOYLSTON,33.919219,-84.376439,,,,,,0,FALSE,POINT (2232947.717377072 1425732.177371376),251,59926,bus,2232947.717,1425732.177,59926,0.016976801
39198,902753,HAMMOND DR@BOYLSTON DR,0 HAMMOND & BOYLSTON,33.918895,-84.376802,,,,,,0,FALSE,POINT (2232837.357815926 1425614.506198984),251,59926,bus,2232837.358,1425614.506,59926,0.014607829
40017,902665,HAMMOND DR NE @ GLENRIDGE DR NE,0 HAMMOND DR NE & GLENRIDGE DR NE,33.918924,-84.363267,,,,,,0,FALSE,POINT (2236943.318193047 1425616.926167518),251,284393,bus,2236943.318,1425616.926,284393,0.003855507
40038,902704,HAMMOND DR @ PEACHTREE DUNWOODY RD,0 HAMMOND & PEACHTREE DUNWOODY,33.918961,-84.351952,,,,,,0,FALSE,POINT (2240375.827461119 1425624.006405999),251,243320,bus,2240375.827,1425624.006,243320,0.006939597
40050,902816,HAMMOND DR NE @ 1005,,33.9189,-84.354671,,,,,,0,FALSE,POINT (2239550.959445771 1425603.309249309),251,281795,bus,2239550.959,1425603.309,281795,0.019396892
40086,902888,HAMMOND DR @ PEACHTREE DUNWOODY RD,0 HAMMOND DR NE & PEACHTREE DUNWOODY RD NE,33.918695,-84.349954,,,,,,0,FALSE,POINT (2240981.761707401 1425526.1271706),251,231947,bus,2240981.762,1425526.127,231947,0.022111955
40118,902889,ASHFORD DUNWOODY RD @ RAVINIA DR,0 ASHFORD DUNWOODY RD NE & RAVINIA N,33.922214,-84.338831,,,,,,0,FALSE,POINT (2244358.15735257 1426800.771144453),251,60755,bus,2244358.157,1426800.771,60755,0.004934674
40130,902890,PEACHTREE DUNWOODY RD @ HOLLIS COBB CIR,0 PEACHTREE DUNWOODY RD NE & HOLLIS COBB CIR,33.908537,-84.351944,,,,,,0,FALSE,POINT (2240371.410771299 1421830.947280768),250,60573,bus,2240371.411,1421830.947,60573,0.017902431
40152,902884,ASHFORD DUNWOODY RD NE@RAVINIA DR,0 ASHFORD DUNWOODY & RAVINIA,33.920977,-84.338791,,,,,,0,FALSE,POINT (2244369.536548823 1426350.634392768),251,244783,bus,2244369.537,1426350.634,244783,0.024801151
40156,902885,PERIMETER CTR E @ ASHFORD DUNWOODY,0 PERIMETER CTR E & ASHFORD CENTER PKY,33.923825,-84.33747,,,,,,0,FALSE,POINT (2244771.985515044 1427386.288260134),251,269464,bus,2244771.986,1427386.288,60759,0.036388604
40158,902886,PERIMETER CTR E @ ASHFORD DUNWOODY,0 PERIMETER & ASHFORD DUNWOODY,33.926156,-84.336697,,,,,,0,FALSE,POINT (2245007.871802025 1428234.097803075),251,244730,bus,2245007.872,1428234.098,244748,0.027628029
40160,902891,PERIMETER CTR E @ ASHFORD DUNWOODY RD,0 PERIMETER & ASHFORD DUNWOODY,33.926453,-84.336617,,,,,,0,FALSE,POINT (2245032.317218702 1428342.129301209),251,244730,bus,2245032.317,1428342.129,60959,0.030960496
40208,903034,PEACHTREE DUNWOODY RD @ JOHNSON FERRY RD,0 PEACHTREE DUNWOODY RD & JOHNSON FERRY RD NE,33.907455,-84.35239,,,,,,0,FALSE,POINT (2240235.385173971 1421437.477035534),250,60564,bus,2240235.385,1421437.477,60564,0.023274826
